Facility ID,Facility Name,Short Description,Description,Facility Open Date,Facility Address 1,Facility Address 2,Facility City,Facility State,Facility Zip Code,Facility Phone Number,Facility Fax Number,Facility Website,Facility County Code,Facility County,Regional Office ID,Regional Office,Main Site Name,Main Site Facility ID,Operating Certificate Number,Operator Name,Operator Address 1,Operator Address 2,Operator City,Operator State,Operator Zip Code,Cooperator Name,Cooperator Address,Cooperator Address 2,Cooperator City,Cooperator State,Cooperator Zip Code,Ownership Type,Facility Latitude,Facility Longitude,Facility Location
13820,"Lynn Agency, Inc.",LHCSA,Licensed Home Care Services Agency,08/25/2017,10 Union Avenue Suite 1,,Lynbrook,New York,11536,6317727100.0,7182612001.0,,29,Nassau,7,Metropolitan Area Regional Office - Long Island,,,9394L002,"Lynn Agency, Inc.",95-07 101st Avenue,,Ozone Park,New York,11416,,,,,New York,,Business Corporation,,,
13923,"Gurwin Home Care Agency, Inc.",LHCSA,Licensed Home Care Services Agency,04/15/1999,68 Hauppauge Road,,Commack,New York,11725,6314931282.0,5165392305.0,www.gurwin.org,51,Suffolk,7,Metropolitan Area Regional Office - Long Island,,,9849L002,"Gurwin Home Care Agency, Inc.",68 Hauppauge Road,,Commack,New York,11725,,,,,New York,,Not for Profit Corporation,,,
15209,The Center for Advanced Spine and Joint Surgery,DTC,Diagnostic and Treatment Center,08/30/2021,125 Kennedy Drive,,Hauppauge,New York,11788,,,,51,Suffolk,7,Metropolitan Area Regional Office - Long Island,,,5155206R,"Hauppauge SC, LLC",125 Kennedy Drive,,Hauppauge,New York,11788,,,,,New York,,LLC,,,
15035,Elmore Home for Adults,AH,Adult Home,02/28/1983,330 Elmore Street,,Central Islip,New York,11722,6312346506.0,6316719662.0,,51,Suffolk,7,Metropolitan Area Regional Office - Long Island,,,700-F-300,Josevito Miranda Teresita Vasquez,330 Elmore Street,,Central Islip,New York,11722-3714,,,,,New York,,Individual,40.784177,-73.199732,"(40.784177, -73.199732)"
15062,The Villa at Westhampton,AH,Adult Home,06/14/2017,68 Old Country Road,,Westhampton,New York,11977,6312408100.0,6312408190.0,www.hamptonsvilla.com#http://www.hamptonsvilla.com#,51,Suffolk,7,Metropolitan Area Regional Office - Long Island,,,700-F-939,"Westhampton Senior Living, Inc.",68 Old Country Road,,Westhampton,New York,11977,,,,,New York,,Business Corporation,40.827851,-72.67682,"(40.827851, -72.67682)"
14831,The Bristal at Lake Success,AH,Adult Home,02/23/2017,69 North Service Road,,Lake Success,New York,11020,5166001800.0,5166001900.0,www.thebristal.com#http://www.thebristal.com#,29,Nassau,7,Metropolitan Area Regional Office - Long Island,,,400-F-337,EB Care at Lake Success LLC,67 Clinton Road,,Garden City,New York,11530,,,,,New York,,LLC,40.770432,-73.705894,"(40.770432, -73.705894)"
12774,Shene Nursing Service,LHCSA,Licensed Home Care Services Agency,11/29/2004,66 Newtown Lane,Suite 8,East Hampton,New York,11937,6313249555.0,6314581426.0,www.shenenursingservice.com,51,Suffolk,7,Metropolitan Area Regional Office - Long Island,,,1127L001,Bethany L. Shene,66 Newtown Lane,Suite 8,East Hampton,New York,11937,,,Suite 8,,New York,,Individual,40.964734,-72.187572,"(40.964734, -72.187572)"
7513,Comprehensive Community Hospice of Parker Jewish Institute,HSPC,Hospice,09/09/1997,271-11 76th Avenue,,New Hyde Park,New York,11040,5165861575.0,5165861690.0,,29,Nassau,7,Metropolitan Area Regional Office - Long Island,,,7003502F,Parker Jewish Institute for Health Care & Rehabilitation,271-11 76th Avenue,,New Hyde Park,New York,11040,,,,,New York,,Not for Profit Corporation,40.753952,-73.706223,"(40.753952, -73.706223)"
6869,"Long Island Center for Digestive Health, LLC",DTC,Diagnostic and Treatment Center,06/15/2006,106 Charles Lindbergh Boulevard,,Uniondale,New York,11553,5167941868.0,,,29,Nassau,7,Metropolitan Area Regional Office - Long Island,,,2905203R,"Long Island Center for Digestive Health, LLC",1103 Stewart Avenue,,Garden City,New York,11530,,,,,New York,,LLC,40.726667,-73.602846,"(40.726667, -73.602846)"
906,Sun River Health Elsie Owens,DTC-EC,Diagnostic and Treatment Center Extension Clinic,06/22/1982,82 Middle County Road,,Coram,New York,11727,9147348503.0,,,51,Suffolk,7,Metropolitan Area Regional Office - Long Island,Sun River Health,1040.0,5901200R,"Sun River Health Care, Inc.",1037 Main Street,,Peekskill,New York,10566,,,,,New York,,Not for Profit Corporation,40.873131,-72.98362,"(40.873131, -72.98362)"
10028,Julia and Israel Waldbaum Dialysis,DTC-EC,Diagnostic and Treatment Center Extension Clinic,12/05/2016,100 Community Drive,,Great Neck,New York,11021,,,,29,Nassau,7,Metropolitan Area Regional Office - Long Island,Port Washington Dialysis Center,9926.0,2951206R,"True North Dialysis Center, LLC",1 Cisney Avenue,,Floral Park,New York,11001,,,,,New York,,LLC,40.781984,-73.706045,"(40.781984, -73.706045)"
9725,North Shore LIJ Imaging at Garden City,HOSP-EC,Hospital Extension Clinic,09/11/2014,711 Stewart Avenue,,Garden City,New York,11530,5163213400.0,,,29,Nassau,7,Metropolitan Area Regional Office - Long Island,North Shore University Hospital,541.0,2951001H,North Shore University Hospital Inc,300 Community Drive,,Manhasset,New York,11030,"Northwell Healthcare, Inc.",2000 Marcus Ave.,,New Hyde Park,New York,11042.0,Not for Profit Corporation,40.73338,-73.60868,"(40.73338, -73.60868)"
15332,Bay Vista Assisted Living,AH,Adult Home,08/10/2022,375 East Bay Drive,,Long Beach,New York,11561,5168971200.0,5167657650.0,www.bayvistaassistedliving.com,29,Nassau,7,Metropolitan Area Regional Office - Long Island,,,400-F-343,"MLAP Acquisition III, LLC",225 Crossways Park Drive,,Woodbury,New York,11797,,,,,New York,,LLC,,,
7821,Memorial Sloan Kettering Hauppauge,HOSP-EC,Hospital Extension Clinic,05/14/1999,800 Veterans Memorial Highway,,Hauppauge,New York,11788,5168635100.0,,,51,Suffolk,7,Metropolitan Area Regional Office - Long Island,Memorial Hospital for Cancer and Allied Diseases,1453.0,7002020H,Memorial Hospital for Cancer and Allied Diseases Inc,1275 York Avenue,,New York,New York,10021,,,,,New York,,Not for Profit Corporation,40.82114,-73.206486,"(40.82114, -73.206486)"
9985,Long Beach Family Medicine Center,HOSP-EC,Hospital Extension Clinic,11/23/2016,761 Franklin Boulevard,,Long Beach,New York,11561,5165442351.0,,,29,Nassau,7,Metropolitan Area Regional Office - Long Island,Mount Sinai South Nassau,527.0,2950001H,South Nassau Communities Hospital Inc,2445 Oceanside Road,,Oceanside,New York,11572,"Mount Sinai Hospitals Group, Inc.",One Gustave L. Levy Place,,New York,New York,10029.0,Not for Profit Corporation,40.594017,-73.650009,"(40.594017, -73.650009)"
9251,NSUH Imaging at Great Neck,HOSP-EC,Hospital Extension Clinic,09/27/2011,611 Northern Blvd,,Great Neck,New York,11021,5162333456.0,,,29,Nassau,7,Metropolitan Area Regional Office - Long Island,North Shore University Hospital,541.0,2951001H,North Shore University Hospital Inc,300 Community Drive,,Manhasset,New York,11030,"Northwell Healthcare, Inc.",2000 Marcus Ave.,,New Hyde Park,New York,11042.0,Not for Profit Corporation,40.782249,-73.716301,"(40.782249, -73.716301)"
15030,Rodden Home,AH,Adult Home,08/08/1978,15 Wittridge Street,,Lake Ronkonkoma,New York,11779,6315851906.0,6315851906.0,,51,Suffolk,7,Metropolitan Area Regional Office - Long Island,,,700-F-109,Matthew Patkowski Margaret Patkowski,15 Wittridge Street,,Lake Ronkonkoma,New York,11779-4117,,,,,New York,,Individual,40.819708,-73.109571,"(40.819708, -73.109571)"
15052,Sunrise of Dix Hills,AH,Adult Home,12/31/2010,337 Deer Park Avenue,,Dix Hills,New York,11746,6313851733.0,6313851754.0,,51,Suffolk,7,Metropolitan Area Regional Office - Long Island,,,700-F-923,"GWC - Dix Hills, Inc.","7900 Westpark Drive, Suite T-900",,"McLean, VA",New York,22102,,,,,New York,,Business Corporation,40.815968,-73.34397,"(40.815968, -73.34397)"
6361,Suffolk Primary Health,DTC,Diagnostic and Treatment Center,03/26/2002,170 Old Country Road,,Riverhead,New York,11901,6312084460.0,,,51,Suffolk,7,Metropolitan Area Regional Office - Long Island,,,5155205R,"Suffolk Primary Health, LLC",170 Old Country Road,,Riverhead,New York,11901,,,,,New York,,LLC,40.936703,-72.650948,"(40.936703, -72.650948)"
7754,Womans Health Source,HOSP-EC,Hospital Extension Clinic,04/23/1999,2100 Middle Country Road,,Centereach,New York,11720,,,,51,Suffolk,7,Metropolitan Area Regional Office - Long Island,St. Charles Hospital,896.0,5149001H,"Catholic Health System of Long Island, Inc.",1 Huntington Quadrangle,,Melville,New York,11747,St Charles Hosp and Rehab Ctr Inc,200 Bell Terre Road,,Port Jefferson,New York,11777.0,Not for Profit Corporation,40.858307,-73.085442,"(40.858307, -73.085442)"
881,Massapequa Center Rehabilitation & Nursing,NH,Residential Health Care Facility - SNF,02/01/1979,101 Louden Ave.,,Amityville,New York,11701,6312640222.0,6313960024.0,,51,Suffolk,7,Metropolitan Area Regional Office - Long Island,,,5120302N,Massapequa Center LLC,101 Louden Avenue,,Amityville,New York,11701,,,,,New York,,LLC,40.684139,-73.422721,"(40.684139, -73.422721)"
15167,"Jericho Road Community Health Center, Breckenridge",DTC-EC,Diagnostic and Treatment Center Extension Clinic,07/10/2021,182 Breckenridge Street,,Buffalo,New York,14213,,,,29,Nassau,1,Western Regional Office - Buffalo,Jericho Road Community Health Center,9542.0,1401237R,Jericho Road Ministries Inc.,184 Barton Street,,Buffalo,New York,14213,,,,,New York,,Not for Profit Corporation,,,
909,Surge Rehabilitation and Nursing LLC,NH,Residential Health Care Facility - SNF,02/01/1989,49 Oakcrest Avenue,,Middle Island,New York,11953,6319248820.0,6319245619.0,,51,Suffolk,7,Metropolitan Area Regional Office - Long Island,,,5151325N,Surge Rehabilitation and Nursing LLC,49 Oakcrest Avenue,,Middle Island,New York,11953,,,,,New York,,LLC,40.891926,-72.96788,"(40.891926, -72.96788)"
15157,PrecisionCare Surgery Center,DTC,Diagnostic and Treatment Center,04/20/2021,28 Research Way,,East Setauket,New York,11733,6315387101.0,,,51,Suffolk,7,Metropolitan Area Regional Office - Long Island,,,5151211R,"Precision SC, LLC",28 Research Way,,East Setauket,New York,11733,,,,,New York,,LLC,,,
14816,The Arbors at Westbury,AH,Adult Home,07/15/1991,45 Jericho Turnpike,,Jericho,New York,11753,5163336400.0,5168760473.0,www.seniorcareassistedliving.com#http://www.seniorcareassistedliving.com#,29,Nassau,7,Metropolitan Area Regional Office - Long Island,,,400-F-307,"Arcadia Management, Inc.",1515 Veterans Memorial Highway,,Islandia,New York,11749-4848,,,,,New York,,Business Corporation,40.777584,-73.563997,"(40.777584, -73.563997)"
3989,Gurwin Jewish Nursing and Rehabilitation Center,NH,Residential Health Care Facility - SNF,10/17/1988,68 Hauppauge Road,,Commack,New York,11725,6314996500.0,6317152908.0,,51,Suffolk,7,Metropolitan Area Regional Office - Long Island,,,5153307N,Rosalind & Joseph Gurwin Jewish Geriatric Ctr of Long Island Inc,68 Hauppauge Road,,Commack,New York,11725,,,,,New York,,Not for Profit Corporation,40.828209,-73.299896,"(40.828209, -73.299896)"
3853,Garden City Surgi Center,DTC,Diagnostic and Treatment Center,04/07/2008,400 Endo Blvd,,Garden City,New York,11530,5168328504.0,,,29,Nassau,7,Metropolitan Area Regional Office - Long Island,,,2905204R,"Endo Group, LLC",400 Endo Boulevard,,Garden City,New York,11530,,,,,New York,,LLC,40.733765,-73.591286,"(40.733765, -73.591286)"
13925,"Home Care Specialist, Inc.",LHCSA,Licensed Home Care Services Agency,11/01/1996,249-12 Jericho Turnpike,Suite 104,Floral Park,New York,11001,7183470036.0,7183431969.0,,29,Nassau,7,Metropolitan Area Regional Office - Long Island,,,9855L001,"Home Care Specialist, Inc.",249-12 Jericho Turnpike,Suite 104,Floral Park,New York,11001,,,Suite 104,,New York,,Business Corporation,40.725937,-73.717713,"(40.725937, -73.717713)"
12754,"Premier Home Health Care Services, Inc.",LHCSA,Licensed Home Care Services Agency,03/15/2002,3075 Veterans Memorial Highway,Suite 181,Ronkonkoma,New York,11779,6319798009.0,6318631970.0,www.premierhomehealthcare.com,51,Suffolk,7,Metropolitan Area Regional Office - Long Island,,,1086L008,"Premier Home Health Care Services, Inc.",1430 Broadway,Suite 1615,New York,New York,10018,,,Suite 1615,,New York,,Business Corporation,40.789295,-73.137054,"(40.789295, -73.137054)"
4298,"Tender Loving Care, an Amedisys Company",CHHA,Certified Home Health Agency,02/14/2005,"3237 Route 112, Building 6, Suite 2",,Medford,New York,11763,5169353737.0,5169325337.0,,51,Suffolk,7,Metropolitan Area Regional Office - Long Island,,,2952603,"Tender Loving Care Health Care Servics of Nassau Suffolk, LLC",960 South Broadway,Suite 110-A,Hicksville,New York,11801,,,Suite 110-A,,New York,,LLC,,,
529,United Cerebral Palsy Treatment and Rehab Center,DTC,Diagnostic and Treatment Center,09/27/1979,380 Washington Ave,,Roosevelt,New York,11575,5163782000.0,,,29,Nassau,7,Metropolitan Area Regional Office - Long Island,,,2950200R,United Cerebral Palsy Association of Nassau County Inc,380 Washington Ave,,Roosevelt,New York,11575,,,,,New York,,Not for Profit Corporation,40.67955,-73.576149,"(40.67955, -73.576149)"
9037,"Long Island Hand and Orthopedic Surgery Center, LLC",DTC,Diagnostic and Treatment Center,06/23/2009,166 East Main Street,,Huntington,New York,11743,6318122678.0,,,51,Suffolk,7,Metropolitan Area Regional Office - Long Island,,,5153211R,"Long Island Hand and Orthopedic Surgery Center, LLC",166 East Main Street,,Huntington,New York,11743,,,,,New York,,LLC,40.879955,-73.400848,"(40.879955, -73.400848)"
13013,Amber Court @ Suffolk County Llc,LHCSA,Licensed Home Care Services Agency,01/08/2018,130 Lake Avenue,,Nesconset,New York,11767,6316360620.0,5162135486.0,,51,Suffolk,7,Metropolitan Area Regional Office - Long Island,,,1642L001,Amber Court @ Suffolk County Llc,130 Lake Avenue,,Nesconset,New York,11767,,,,,New York,,LLC,40.854293,-73.154714,"(40.854293, -73.154714)"
15072,The Vincent Bove Health Center at Jefferson's Ferry,EHP,Enriched Housing Program,07/30/2001,One Jefferson Ferry Drive,,South Setauket,New York,11720,6316502600.0,6316502620.0,www.jeffersonsferry.org#http://www.jeffersonsferry.org#,51,Suffolk,7,Metropolitan Area Regional Office - Long Island,,,700-S-291,"Active Retirement Community, Inc.",500 Mather Drive,,South Setauket,New York,11720-4701,,,,,New York,,Not for Profit Corporation,40.898709,-73.079312,"(40.898709, -73.079312)"
10443,South Shore University Hospital Pre-Surgical Testing Extension Clinic,HOSP-EC,Hospital Extension Clinic,08/17/2020,2048 Sunrise Highway,,Bay Shore,New York,11706,6319687466.0,,,51,Suffolk,7,Metropolitan Area Regional Office - Long Island,South Shore University Hospital,924.0,5154000H,South Shore University Hospital,301 East Main Street,,Bay Shore,New York,11706,"Northwell Healthcare, Inc.",2000 Marcus Ave.,,New Hyde Park,New York,11042.0,Not for Profit Corporation,40.739167,-73.226735,"(40.739167, -73.226735)"
6281,Pediatric & Adolescent Med Clinic,HOSP-EC,Hospital Extension Clinic,09/15/1998,410 Lakevile Rd,,New Hyde Park,New York,11040,5164654377.0,,,29,Nassau,7,Metropolitan Area Regional Office - Long Island,Long Island Jewish Medical Center,1630.0,7003004H,Long Island Jewish Medical Center,270-05 76 Avenue,,New Hyde Park,New York,11040,"Northwell Quality and Medical Affairs, Inc.",2000 Marcus Ave.,,New Hyde Park,New York,11042.0,Not for Profit Corporation,40.734882,-73.688087,"(40.734882, -73.688087)"
10110,New Hyde Park Endoscopy,DTC,Diagnostic and Treatment Center,12/12/2017,1991 Marcus Avenue,,Lake Success,New York,11042,,,,29,Nassau,7,Metropolitan Area Regional Office - Long Island,,,2963202R,"NHPE, LLC",1991 Marcus Avenue,,Lake Success,New York,11042,,,,,New York,,LLC,40.757247,-73.692371,"(40.757247, -73.692371)"
15305,Charles Evans Center-Melillo Health Center,DTC-EC,Diagnostic and Treatment Center Extension Clinic,04/20/2022,113 Glen Cove Avenue,,Glen Cove,New York,11542,5166762388.0,,,29,Nassau,7,Metropolitan Area Regional Office - Long Island,Charles Evans Center,5771.0,2950212R,"Charles Evans Center, Inc.",857 South Oyster Bay Road,,Bethpage,New York,11714,,,,,New York,,Not for Profit Corporation,,,
9450,Stony Brook Southampton Hospital Radiology/Edie Windsor Healthcare Center,HOSP-EC,Hospital Extension Clinic,03/18/2013,182 West Montauk Highway,Building B,Hampton Bays,New York,11946,6317268436.0,6317268704.0,,51,Suffolk,7,Metropolitan Area Regional Office - Long Island,Stony Brook University Hospital,245.0,5151001H,State University of New York,178-50 Linden Blvd,,Jamaica,New York,11434,,,,,New York,,State,40.874554,-72.53656,"(40.874554, -72.53656)"
7072,Northwell Family Health Center at Huntington,DTC,Diagnostic and Treatment Center,02/06/1997,1572 New York Avenue,,Huntington Station,New York,11746,6314255244.0,,,51,Suffolk,7,Metropolitan Area Regional Office - Long Island,,,5153207R,"Huntington Hospital Dolan Family Health Center, Inc",284 Pulaski Road,,Green Lawn,New York,11740,,,,,New York,,Not for Profit Corporation,,,
9650,NYU Langone Hospital-Long Island Pediatric Center,HOSP-EC,Hospital Extension Clinic,03/24/2014,175 Fulton Avenue,,Hempstead,New York,11550,5165354102.0,5162920565.0,,29,Nassau,7,Metropolitan Area Regional Office - Long Island,NYU Langone Hospitals,1463.0,7002053H,NYU Langone Hospitals,550 First Avenue,,New York,New York,10016,,,,,New York,,Not for Profit Corporation,40.707481,-73.629768,"(40.707481, -73.629768)"
3981,"Hospice Care of Long Island, Queens, South Shore",HSPC,Hospice,09/30/1988,99 Sunnyside Boulevard,,Woodbury,New York,11797,9146667616.0,,,29,Nassau,7,Metropolitan Area Regional Office - Long Island,,,2912500F,Hospice Care Network,225 Community Drive,,Lake Success,New York,11021,,,,,New York,,Not for Profit Corporation,40.7995,-73.479301,"(40.7995, -73.479301)"
15045,Islip Pearl Garden,AH,Adult Home,02/28/1983,36 Locust Avenue,,Islip,New York,11751,6318593228.0,6312771081.0,pearlgardenmanor.org,51,Suffolk,7,Metropolitan Area Regional Office - Long Island,,,700-F-963,Islip Pearl Garden LLC,634 Van Dam Street,,Valley Stream,New York,11581,,,,,New York,,LLC,40.730397,-73.213312,"(40.730397, -73.213312)"
15067,Whisper Woods of Smithtown,AH,Adult Home,07/20/2018,71 St. Johnland Road,,Smithtown,New York,11787,6313203181.0,6317805296.0,www.benchmarkseniorliving.com#http://www.benchmarkseniorliving.com#,51,Suffolk,7,Metropolitan Area Regional Office - Long Island,,,700-F-957,"BSL Smithtown Operations, Inc.",71 St. Johnland Road.,,Smithtown,New York,11787,,,,,New York,,Business Corporation,40.866967,-73.22007,"(40.866967, -73.22007)"
13995,Peconic Bay Dialysis,DTC-EC,Diagnostic and Treatment Center Extension Clinic,04/12/2021,700 Old Country Road (Building 3),,Riverhead,New York,11901,6312080282.0,,,51,Suffolk,7,Metropolitan Area Regional Office - Long Island,Bronx Dialysis Center,6661.0,7000272R,"Knickerbocker Dialysis, Inc",1615-1617 Eastchester Road,,Bronx,New York,10461,,,,,New York,,Business Corporation,40.935328,-72.668092,"(40.935328, -72.668092)"
13121,"Recco Home Care Service, Inc.",LHCSA,Licensed Home Care Services Agency,03/04/2011,1787 Veterans Highway,Suite 30,Islandia,New York,11749-1500,6313600066.0,6313600463.0,,51,Suffolk,7,Metropolitan Area Regional Office - Long Island,,,1819L002,"Recco Home Care Service, Inc.",524 Hicksville Road,,Massapequa,New York,11758,,,,,New York,,Business Corporation,40.80504,-73.178619,"(40.80504, -73.178619)"
518,Long Island Jewish Valley Stream,HOSP,Hospital,01/01/1901,900 Franklin Avenue,,Valley Stream,New York,11580,5162566000.0,,,29,Nassau,7,Metropolitan Area Regional Office - Long Island,Long Island Jewish Medical Center,1630.0,7003004H,Long Island Jewish Medical Center,270-05 76 Avenue,,New Hyde Park,New York,11040,"Northwell Healthcare, Inc.",2000 Marcus Ave.,,New Hyde Park,New York,11042.0,Not for Profit Corporation,40.681789,-73.685814,"(40.681789, -73.685814)"
6976,LIJ Center for Advanced Medicine,HOSP-EC,Hospital Extension Clinic,06/21/2005,450 Lakeville Road,,Lake Success,New York,11042,5167348000.0,,,29,Nassau,7,Metropolitan Area Regional Office - Long Island,Long Island Jewish Medical Center,1630.0,7003004H,Long Island Jewish Medical Center,270-05 76 Avenue,,New Hyde Park,New York,11040,"Northwell Quality and Medical Affairs, Inc.",2000 Marcus Ave.,,New Hyde Park,New York,11042.0,Not for Profit Corporation,40.753628,-73.703323,"(40.753628, -73.703323)"
13779,"Cottage Homecare Services, Inc.",LHCSA,Licensed Home Care Services Agency,06/04/1992,25 Newbridge Road,Ste 302,Hicksville,New York,11801,5163672266.0,5163671067.0,www.cottagehomecareservices.com,29,Nassau,7,Metropolitan Area Regional Office - Long Island,,,9239L001,"Cottage Homecare Services, Inc.",25 Newbridge Road,Ste 302,Hicksville,New York,11801,,,Ste 302,,New York,,Business Corporation,40.768093,-73.526933,"(40.768093, -73.526933)"
10420,South Shore University Hospital Sleep Center Extension Clinic,HOSP-EC,Hospital Extension Clinic,07/01/2020,125 Kennedy Drive,,Hauppauge,New York,11788,6319683150.0,,,51,Suffolk,7,Metropolitan Area Regional Office - Long Island,South Shore University Hospital,924.0,5154000H,South Shore University Hospital,301 East Main Street,,Bay Shore,New York,11706,"Northwell Quality and Medical Affairs, Inc.",2000 Marcus Ave.,,New Hyde Park,New York,11042.0,Not for Profit Corporation,40.81103,-73.238057,"(40.81103, -73.238057)"
5769,St. Charles Rehabilitation,HOSP-EC,Hospital Extension Clinic,08/02/1995,3 Technology Drive,,East Setauket,New York,11733,,,,51,Suffolk,7,Metropolitan Area Regional Office - Long Island,St. Charles Hospital,896.0,5149001H,"Catholic Health System of Long Island, Inc.",1 Huntington Quadrangle,,Melville,New York,11747,St Charles Hosp and Rehab Ctr Inc,200 Bell Terre Road,,Port Jefferson,New York,11777.0,Not for Profit Corporation,40.896912,-73.087799,"(40.896912, -73.087799)"
13356,"Safe And Prudent, Llc",LHCSA,Licensed Home Care Services Agency,01/19/2016,401 Broadway,,Lawrence,New York,11559,5163743395.0,,,29,Nassau,7,Metropolitan Area Regional Office - Long Island,,,2182L001,"Safe And Prudent, Llc",401 Broadway,,Lawrence,New York,11559,,,,,New York,,LLC,40.617137,-73.7254,"(40.617137, -73.7254)"
6702,"Advantage Care Diagnostic and Treatment Center, Inc.",DTC,Diagnostic and Treatment Center,12/21/2004,189 Wheatley Road,,Glen Head,New York,11545,5166864400.0,,,29,Nassau,7,Metropolitan Area Regional Office - Long Island,,,2987200R,"Advantage Care Diagnostic and Treatment Center, Inc.",189 Wheatley Road,,Brookville,New York,11545,,,,,New York,,Not for Profit Corporation,40.808709,-73.581777,"(40.808709, -73.581777)"
9691,South Nassau Communities Hospital Off-Campus Emergency Department,HOSP,Hospital,06/30/2014,325 East Bay Drive,,Long Beach,New York,11561,5168701010.0,,,29,Nassau,7,Metropolitan Area Regional Office - Long Island,Mount Sinai South Nassau,527.0,2950001H,South Nassau Communities Hospital Inc,2445 Oceanside Road,,Oceanside,New York,11572,"Mount Sinai Hospitals Group, Inc.",One Gustave L. Levy Place,,New York,New York,10029.0,Not for Profit Corporation,40.594237,-73.654958,"(40.594237, -73.654958)"
12777,"Best Island Care, Inc.",LHCSA,Licensed Home Care Services Agency,09/29/2010,50 Clinton Street,Suite 203,Hempstead,New York,11550,5167313770.0,5167319271.0,www.bestcare.com,29,Nassau,7,Metropolitan Area Regional Office - Long Island,,,1149L001,"Best Island Care, Inc.",3000 Hempstead Turnpike,Suite 205,Levittown,New York,11756,,,Suite 205,,New York,,Business Corporation,40.708214,-73.618389,"(40.708214, -73.618389)"
6130,Garden City Dialysis Center,DTC-EC,Diagnostic and Treatment Center Extension Clinic,07/01/2006,1100 Stewart Ave,,Garden City,New York,11530,5163570004.0,,,29,Nassau,7,Metropolitan Area Regional Office - Long Island,Bronx Dialysis Center,6661.0,7000272R,"Knickerbocker Dialysis, Inc",1615-1617 Eastchester Road,,Bronx,New York,10461,,,,,New York,,Business Corporation,40.73576,-73.593124,"(40.73576, -73.593124)"
12790,"Tri-County Home Nursing Services, Inc.",LHCSA,Licensed Home Care Services Agency,02/19/2003,1065 Old Country Rd.,,Westbury,New York,11590-5642,5169971208.0,5169974460.0,www.tchns.com,29,Nassau,7,Metropolitan Area Regional Office - Long Island,,,1168L001,"Tri-County Home Nursing Services, Inc.",1065 Old Country Rd.,,Westbury,New York,11590-5642,,,,,New York,,Business Corporation,40.755352,-73.556532,"(40.755352, -73.556532)"
941,Acadia Center for Nursing and Rehabilitation,NH,Residential Health Care Facility - SNF,12/11/1985,1146 Woodcrest Avenue,,Riverhead,New York,11901,6317277744.0,6317277223.0,,51,Suffolk,7,Metropolitan Area Regional Office - Long Island,,,5155301N,"Riverhead Care Center, LLC",1146 Woodcrest Avenue,,Riverhead,New York,11901,,,,,New York,,LLC,40.930679,-72.684074,"(40.930679, -72.684074)"
12912,Promptcare Home Infusion Of New York LLC,LHCSA,Licensed Home Care Services Agency,12/06/2007,51 East Bethpage Road,Suite 200B,Plainview,New York,11803,8667666782.0,8008156808.0,,29,Nassau,7,Metropolitan Area Regional Office - Long Island,,,1481L001,Promptcare Home Infusion Of New York LLC,51 East Bethpage Road,Suite 200B,Plainview,New York,11803,,,Suite 200B,,New York,,LLC,40.780519,-73.455207,"(40.780519, -73.455207)"
13246,"Care Connection Home Care, Llc",LHCSA,Licensed Home Care Services Agency,07/10/2013,1100 Wantagh Avenue,,Wantagh,New York,11793,5163084633.0,5163083378.0,,29,Nassau,7,Metropolitan Area Regional Office - Long Island,,,2012L001,"Care Connection Home Care, Llc",1100 Wantagh Avenue,,Wantagh,New York,11793,,,,,New York,,LLC,40.696309,-73.507684,"(40.696309, -73.507684)"
15189,"Northeast Endoscopy, LLC",DTC,Diagnostic and Treatment Center,07/14/2021,235 North Belle Meade Road,,East Setauket,New York,11733,9176735244.0,,,51,Suffolk,7,Metropolitan Area Regional Office - Long Island,,,5151212R,"Northeast Endoscopy, LLC",235 North Belle Meade Road,,East Setauket,New York,11733,,,,,New York,,LLC,,,
4219,Ronkonkoma Health Center,DTC-EC,Diagnostic and Treatment Center Extension Clinic,01/16/1990,161 Lake Shore Road,,Lake Ronkonkoma,New York,11779,5167376689.0,,,51,Suffolk,7,Metropolitan Area Regional Office - Long Island,Damian Family Care Center,6067.0,7003246R,"Damian Family Care Centers, Inc.","89-56 162nd Street, 3rd Floor",,Jamaica,New York,11432,,,,,New York,,Not for Profit Corporation,40.82571,-73.116646,"(40.82571, -73.116646)"
891,Stony Brook Eastern Long Island Hospital,HOSP,Hospital,01/01/1901,201 Manor Place,,Greenport,New York,11944,6314771000.0,,,51,Suffolk,7,Metropolitan Area Regional Office - Long Island,Stony Brook University Hospital,245.0,5151001H,State University of New York,178-50 Linden Blvd,,Jamaica,New York,11434,,,,,New York,,State,41.110958,-72.361282,"(41.110958, -72.361282)"
15077,The Bristal at Holtsville,EHP,Enriched Housing Program,09/01/2016,5535 Expressway Drive North,,Holtsville,New York,11742,6317322300.0,6318283601.0,www.thebristal.com#http://www.thebristal.com#,51,Suffolk,7,Metropolitan Area Regional Office - Long Island,,,700-S-309,EB Care at Farmingville LLC,5535 Expressway Drive North,,Holtsville,New York,11742,,,,,New York,,LLC,40.823524,-73.026374,"(40.823524, -73.026374)"
13283,Brightstar Of North Shore Nassau County,LHCSA,Licensed Home Care Services Agency,05/07/2014,136 Woodbury Road,Suite 203,Woodbury,New York,11797,5167145463.0,,,29,Nassau,7,Metropolitan Area Regional Office - Long Island,,,2077L001,"Gtd Services, Inc.",136 Woodbury Road,Suite 203,Woodbury,New York,11797,,,Suite 203,,New York,,Business Corporation,40.828121,-73.460764,"(40.828121, -73.460764)"
12730,Companions Plus Inc.,LHCSA,Licensed Home Care Services Agency,03/10/2006,2100 Deer Park Avenue,Suite 1B,Deer Park,New York,11729,5163346830.0,5168768883.0,,51,Suffolk,7,Metropolitan Area Regional Office - Long Island,,,1054L001,Companions Plus Inc.,2100 Deer Park Avenue,Suite 1B,Deer Park,New York,11729,,,Suite 1B,,New York,,Business Corporation,,,
15050,Brandywine Senior Living at Huntington Terrace,AH,Adult Home,04/24/2002,70 Pinelawn Road,,Melville,New York,11747,6315310000.0,6315310003.0,,51,Suffolk,7,Metropolitan Area Regional Office - Long Island,,,700-F-919,Brandywine Senior Living at Huntington Terrace LLC,70 Pinelawn Road,,Melville,New York,11747,,,,,New York,,LLC,40.77999,-73.404576,"(40.77999, -73.404576)"
6505,Stony Brook University Hosp Ob&Gyn,HOSP-EC,Hospital Extension Clinic,04/10/2003,6 Technology Drive,,East Setauket,New York,11733,6314444686.0,,,51,Suffolk,7,Metropolitan Area Regional Office - Long Island,Stony Brook University Hospital,245.0,5151001H,State University of New York,178-50 Linden Blvd,,Jamaica,New York,11434,,,,,New York,,State,40.897308,-73.08651,"(40.897308, -73.08651)"
13935,"Individual Home Care Provider, Incorporated",LHCSA,Licensed Home Care Services Agency,10/17/1997,2364 Middle Country Rd.,,Centereach,New York,11720-3502,6314674435.0,6314676962.0,,51,Suffolk,7,Metropolitan Area Regional Office - Long Island,,,9934L001,"Individual Home Care Provider, Incorporated",2364 Middle Country Rd.,,Centereach,New York,11720,,,,,New York,,Business Corporation,40.857981,-73.095039,"(40.857981, -73.095039)"
6557,"Progressive Surgery Center, LLC",DTC,Diagnostic and Treatment Center,09/30/2003,340 Broad Hollow Road,,Farmingdale,New York,11735,6317640000.0,,,51,Suffolk,7,Metropolitan Area Regional Office - Long Island,,,5150202R,"Progressive Surgery Center, LLC",340 Broad Hollow Road,,Farmingdale,New York,11735,,,,,New York,,LLC,40.717068,-73.42662,"(40.717068, -73.42662)"
6894,Good Samaritan Hosp Pet/Ct Scanner,HOSP-EC,Hospital Extension Clinic,07/21/2006,1245 Montauk Highway,,West Islip,New York,11795,6313763058.0,,,51,Suffolk,7,Metropolitan Area Regional Office - Long Island,Good Samaritan Hospital Medical Center,925.0,5154001H,Good Samaritan Hospital Medical Center,1000 Montauk Highway,,West Islip,New York,11795,"Catholic Health System of Long Island, Inc.",1 Huntington Quadrangle,,Melville,New York,11747.0,Not for Profit Corporation,40.696487,-73.290375,"(40.696487, -73.290375)"
12547,People Care Incorporated,LHCSA,Licensed Home Care Services Agency,08/03/2000,1 South Ocean Ave,Ste 200,Patchogue,New York,11772-3039,6312072179.0,6312072180.0,www.peoplecare.com,51,Suffolk,7,Metropolitan Area Regional Office - Long Island,,,0505L004,People Care Incorporated,1649 61St Street,,Brooklyn,New York,11204,,,,,New York,,Business Corporation,40.765636,-73.015032,"(40.765636, -73.015032)"
9951,FMS - Huntington Dialysis Center,DTC-EC,Diagnostic and Treatment Center Extension Clinic,08/26/2016,33 Walt Whitman Road,,Huntington,New York,11743,,,,51,Suffolk,7,Metropolitan Area Regional Office - Long Island,FMS-Southern Manhattan Dialysis Center,3414.0,7002176R,New York Dialysis Services Inc,650 Mcclellan,,Schenectady,New York,12304,,,,,New York,,Business Corporation,40.830616,-73.415281,"(40.830616, -73.415281)"
3465,Irving Goldman Family Care Center,HOSP-EC,Hospital Extension Clinic,03/20/1992,865 Northern Boulevard,,Great Neck,New York,11021,5165624050.0,,,29,Nassau,7,Metropolitan Area Regional Office - Long Island,North Shore University Hospital,541.0,2951001H,North Shore University Hospital Inc,300 Community Drive,,Manhasset,New York,11030,"Northwell Quality and Medical Affairs, Inc.",2000 Marcus Ave.,,New Hyde Park,New York,11042.0,Not for Profit Corporation,40.785221,-73.709167,"(40.785221, -73.709167)"
13519,Acute Care Experts Of New York Inc.,LHCSA,Licensed Home Care Services Agency,04/29/2016,410 East Jericho Turnpike,,Mineola,New York,11501,6312369600.0,7185311028.0,,29,Nassau,7,Metropolitan Area Regional Office - Long Island,,,2474L001,Acute Care Experts Of New York Inc.,410 East Jericho Turnpike,,Mineola,New York,11501,,,,,New York,,Business Corporation,40.756434,-73.622013,"(40.756434, -73.622013)"
7762,St. Charles Rehabilitation,HOSP-EC,Hospital Extension Clinic,01/08/1998,77 Route 112,,Patchogue,New York,11772,,,,51,Suffolk,7,Metropolitan Area Regional Office - Long Island,St. Charles Hospital,896.0,5149001H,"Catholic Health System of Long Island, Inc.",1 Huntington Quadrangle,,Melville,New York,11747,St Charles Hosp and Rehab Ctr Inc,200 Bell Terre Road,,Port Jefferson,New York,11777.0,Not for Profit Corporation,40.768681,-73.007095,"(40.768681, -73.007095)"
12660,Region Care Nursing Agency,LHCSA,Licensed Home Care Services Agency,04/13/1999,711 Stewart Avenue,Suite 145,Garden City,New York,11530,5162665200.0,5162665299.0,,29,Nassau,7,Metropolitan Area Regional Office - Long Island,,,0861L003,"Regioncare, Inc.",200 Community Drive,,Great Neck,New York,11021-5504,,,,,New York,,Business Corporation,40.733413,-73.608033,"(40.733413, -73.608033)"
3618,NYU Winthrop Hospital,LTHHCP,Long Term Home Health Care Program,07/18/1986,290 Old Country Road,,Mineola,New York,11501,5166338000.0,,,29,Nassau,7,Metropolitan Area Regional Office - Long Island,,,2908901L,NYU Winthrop Hospital,259 First St,,Mineola,New York,11501,NYU Langone Health System,550 First Avenue,,New York,New York,10016.0,Not for Profit Corporation,40.73819,-73.643799,"(40.73819, -73.643799)"
14848,The Bristal at Jericho,EHP,Enriched Housing Program,12/19/2018,310 Jericho Turnpike,,Jericho,New York,11753,5162198688.0,5168027160.0,#https://thebristal.com/jericho/#,29,Nassau,7,Metropolitan Area Regional Office - Long Island,,,400-S-332,"Engel Burman Senior Care at Jericho, LLC",67 Clinton Road,,Garden City,New York,11530,,,,,New York,,LLC,40.792167,-73.541039,"(40.792167, -73.541039)"
10102,East Hills Surgery Center,DTC,Diagnostic and Treatment Center,12/04/2017,2200 Northern Boulevard,,East Hills,New York,11548,,,,29,Nassau,7,Metropolitan Area Regional Office - Long Island,,,2977200R,"S.F. Nassau ASC, LLC",2200 Northern Boulevard,,East Hills,New York,11548,,,,,New York,,LLC,40.80756,-73.633685,"(40.80756, -73.633685)"
12759,Woodhaven Assisted Living Program,LHCSA,Licensed Home Care Services Agency,06/20/2003,1360 Route 112,,Port Jefferson Station,New York,11776-3078,6314737100.0,6314737118.0,woodhavencenter.com,51,Suffolk,7,Metropolitan Area Regional Office - Long Island,,,1095L001,Woodhaven Adult Home Llc,1350 Route 112,,Port Jefferson Sta.,New York,11776-3078,,,,,New York,,LLC,40.916047,-73.034832,"(40.916047, -73.034832)"
1833,Long Island Community Hospital at NYU Langone Health Home Care,CHHA,Certified Home Health Agency,01/01/1901,103 West Main Street,,Patchogue,New York,11772,6317583600.0,,,51,Suffolk,7,Metropolitan Area Regional Office - Long Island,,,5123600,Long Island Community Hospital at NYU Langone Health,101 Hospital Road,,Patchogue,New York,11772,,,,,New York,,Not for Profit Corporation,40.765911,-73.017731,"(40.765911, -73.017731)"
13340,All Island Homecare Services,LHCSA,Licensed Home Care Services Agency,10/10/2017,60 East Industry Court,"4th Fl., Suite B",Deer Park,New York,11729,6315221212.0,6315221213.0,,51,Suffolk,7,Metropolitan Area Regional Office - Long Island,,,2156L001,"Liberty Healthcare Services, Inc.",60 East Industry Court,"4th Fl., Suite B",Deer Park,New York,11729,,,"4th Fl., Suite B",,New York,,Business Corporation,40.762367,-73.297894,"(40.762367, -73.297894)"
9628,"Parker Jewish Institute for Health Care and Rehabilitation, Certified Home Health Agency",CHHA,Certified Home Health Agency,12/20/2013,271-11 76th Avenue,,New Hyde Park,New York,11040,5165861500.0,5165861696.0,,29,Nassau,7,Metropolitan Area Regional Office - Long Island,,,2963601,Parker Jewish Institute for Health Care & Rehabilitation,271-11 76th Avenue,,New Hyde Park,New York,11040,,,,,New York,,Not for Profit Corporation,40.753942,-73.706231,"(40.753942, -73.706231)"
14838,The Bristal at North Hills,EHP,Enriched Housing Program,03/31/2006,99 South Service Road,,North Hills,New York,11040,5162333100.0,5162333300.0,,29,Nassau,7,Metropolitan Area Regional Office - Long Island,,,400-S-309,"Engel Burman Senior Housing at North Hills, Inc.",99 South Service Road,,North Hills,New York,11040-1055,,,,,New York,,Business Corporation,40.771042,-73.686638,"(40.771042, -73.686638)"
548,Sunharbor Manor,NH,Residential Health Care Facility - SNF,01/01/1991,255 Warner Avenue,,Roslyn Heights,New York,11577,5166215400.0,5166214879.0,,29,Nassau,7,Metropolitan Area Regional Office - Long Island,,,2951307N,"Sunharbor Acquistion I, LLC",255 Warner Avenue,,Roslyn Heights,New York,11577,,,,,New York,,LLC,40.791851,-73.644928,"(40.791851, -73.644928)"
4552,Luxor Nursing and Rehabilitation at Sayville,NH,Residential Health Care Facility - SNF,10/19/1992,300 Broadway Avenue,,Sayville,New York,11782,6315679300.0,6315670374.0,,51,Suffolk,7,Metropolitan Area Regional Office - Long Island,,,5154327N,L&A Operational LLC,300 Broadway Avenue,,Sayville,New York,11782,,,,,New York,,LLC,40.764141,-73.066551,"(40.764141, -73.066551)"
5757,The Christiane and Richard Hiegel Health Center,HOSP-EC,Hospital Extension Clinic,06/28/1995,147 Beach Road,,Westhampton Beach,New York,11978,,,,51,Suffolk,7,Metropolitan Area Regional Office - Long Island,Stony Brook University Hospital,245.0,5151001H,State University of New York,178-50 Linden Blvd,,Jamaica,New York,11434,,,,,New York,,State,40.820945,-72.641707,"(40.820945, -72.641707)"
6270,New Hyde Park Dialysis Center,DTC,Diagnostic and Treatment Center,07/30/2001,1574-78 Hillside Ave,,New Hyde Park,New York,11040,5163275555.0,,,29,Nassau,7,Metropolitan Area Regional Office - Long Island,,,2912200R,New Hyde Park Dialysis Center LLC,1574-78 Hillside Ave,,New Hyde Park,New York,11040,,,,,New York,,LLC,40.747787,-73.685677,"(40.747787, -73.685677)"
12530,Addus Homecare,LHCSA,Licensed Home Care Services Agency,06/30/1987,3275 Veterans Highway,,Ronkonkoma,New York,11779,6302963591.0,6315677923.0,www.southshorehomehealth.com,51,Suffolk,7,Metropolitan Area Regional Office - Long Island,,,0318L001,South Shore Home Health Service Inc.,3275 Veterans Highway,,Ronkonkoma,New York,11779,,,,,New York,,Business Corporation,,,
4159,Long Island Ambulatory Surgery Center,DTC,Diagnostic and Treatment Center,09/05/1989,601 Suffolk Avenue,,Brentwood,New York,11717,6312314455.0,,,51,Suffolk,7,Metropolitan Area Regional Office - Long Island,,,5154205R,"Long Island Ambulatory Surgery Center, LLC",601 Suffolk Avenue,,Brentwood,New York,11717,,,,,New York,,LLC,40.779846,-73.252518,"(40.779846, -73.252518)"
13683,Amerita,LHCSA,Licensed Home Care Services Agency,04/24/2019,75 Nassau Terminal Road,,New Hyde Park,New York,11040,5162801000.0,5162801075.0,,29,Nassau,7,Metropolitan Area Regional Office - Long Island,,,2717L002,Amerita Of New York Llc,75 Nassau Terminal Road,,New Hyde Park,New York,11040,,,,,New York,,LLC,40.734422,-73.673344,"(40.734422, -73.673344)"
8547,East End Dialysis Center,DTC,Diagnostic and Treatment Center,11/08/2007,762 Harrison Avenue,,Riverhead,New York,11901,6313692005.0,,,51,Suffolk,7,Metropolitan Area Regional Office - Long Island,,,5155204R,"East End Dialysis Management, LLC",762 Harrison Avenue,,Riverhead,New York,11901,,,,,New York,,LLC,40.928474,-72.678932,"(40.928474, -72.678932)"
7710,Day OP of North Nassau Inc,DTC,Diagnostic and Treatment Center,01/04/1999,192 East Shore Road,,Great Neck,New York,11023,5168297876.0,,,29,Nassau,7,Metropolitan Area Regional Office - Long Island,,,2913201R,Day Op of North Nassau Inc,192 East Shore Road,,Great Neck,New York,11010,,,,,New York,,Business Corporation,40.794048,-73.712387,"(40.794048, -73.712387)"
496,Beach Terrace Care Center,NH,Residential Health Care Facility - SNF,08/01/1980,640 West Broadway,,Long Beach,New York,11561,5164314400.0,5164312105.0,,29,Nassau,7,Metropolitan Area Regional Office - Long Island,,,2902303N,Beach Terrace Care Center Inc,640 West Broadway,,Long Beach,New York,11561,,,,,New York,,Business Corporation,40.584415,-73.682816,"(40.584415, -73.682816)"
9770,Fresenius Kidney Care - Bay Shore,DTC-EC,Diagnostic and Treatment Center Extension Clinic,01/01/2015,929 Sunrise Highway,,Bay Shore,New York,11706,6319566060.0,,,51,Suffolk,7,Metropolitan Area Regional Office - Long Island,FMS-Southern Manhattan Dialysis Center,3414.0,7002176R,New York Dialysis Services Inc,650 Mcclellan,,Schenectady,New York,12304,,,,,New York,,Business Corporation,40.730665,-73.276243,"(40.730665, -73.276243)"
9920,Freedom Center of Syosset,DTC,Diagnostic and Treatment Center,05/19/2016,760 Broadway,,Hicksville,New York,11801,5168271370.0,,,29,Nassau,7,Metropolitan Area Regional Office - Long Island,,,2952203R,"Freedom Center of Syosset, LLC",760 Broadway,,Hicksville,New York,11801,,,,,New York,,LLC,40.773628,-73.531497,"(40.773628, -73.531497)"
951,"St Johnland Nursing Center, Inc",NH,Residential Health Care Facility - SNF,02/01/1989,395 Sunken Meadow Road,,Kings Park,New York,11754,6312695800.0,6312695876.0,,51,Suffolk,7,Metropolitan Area Regional Office - Long Island,,,5157311N,"St Johnland Nursing Center, Inc",395 Sunken Meadow Road,,Kings Park,New York,11754,,,,,New York,,Not for Profit Corporation,40.90197,-73.240585,"(40.90197, -73.240585)"
4489,Primary Med Care Outpatient,HOSP-EC,Hospital Extension Clinic,04/15/1991,5225 Rt 347,,Port Jefferson Station,New York,11776,5164731320.0,,,51,Suffolk,7,Metropolitan Area Regional Office - Long Island,John T Mather Memorial Hospital of Port Jefferson New York Inc,895.0,5149000H,John T Mather of Port Jefferson NY Inc,North Country Road,,Port Jefferson,New York,11777,"Northwell Healthcare, Inc.",2000 Marcus Ave.,,New Hyde Park,New York,11042.0,Not for Profit Corporation,40.927387,-73.043007,"(40.927387, -73.043007)"
7020,Westbury/New Cassel Family Health Center,DTC-EC,Diagnostic and Treatment Center Extension Clinic,10/29/1996,682 Union Avenue,,New Cassel,New York,11590,5165719500.0,,,29,Nassau,7,Metropolitan Area Regional Office - Long Island,Harmony Health Care Long Island,15557.0,2908201R,Nassau Health Care Corporation,240 Old Country Road,,Mineola,New York,11501,Harmony Health Care Long Island,2201 Hempstead Turnpike,,East Meadow,New York,11554.0,Public Benefit Corporation,40.761124,-73.575806,"(40.761124, -73.575806)"
9678,Stony Brook University Hospital's Extension Clinic at Stony Brook Road,HOSP-EC,Hospital Extension Clinic,05/07/2014,"1320 Stony Brook Road, Suite E",,Stony Brook,New York,11790,6314449404.0,,,51,Suffolk,7,Metropolitan Area Regional Office - Long Island,Stony Brook University Hospital,245.0,5151001H,State University of New York,178-50 Linden Blvd,,Jamaica,New York,11434,,,,,New York,,State,40.87785,-73.118942,"(40.87785, -73.118942)"
13905,Nursing Personnel Homecare,LHCSA,Licensed Home Care Services Agency,02/01/1996,"70 E. Sunrise Highway, Room 500",,Valley Stream,New York,11581,5166222200.0,5163777203.0,www.nursingpersonnel.com,29,Nassau,7,Metropolitan Area Regional Office - Long Island,,,9801L001,"B & H Healthcare Services, Inc.",2425 Grand Avenue,,Baldwin,New York,11510,,,,,New York,,Business Corporation,,,
15590,Touch of love Homecare Agency Inc,LHCSA,Licensed Home Care Services Agency,10/13/2023,200 Broadhollow rd,Suite 207,Melville,New York,11747,6467605363.0,9292439133.0,,51,Suffolk,7,Metropolitan Area Regional Office - Long Island,,,2042L002,Touch Of Love Homecare Agency Inc,396 Avenue X,,Brooklyn,New York,11223,,,,,New York,,Business Corporation,,,
12492,Unlimited Care Inc.,LHCSA,Licensed Home Care Services Agency,09/29/2000,33 Walt Whitman Road,Suite 207e,Huntington Station,New York,11746,6317241265.0,6317241371.0,www.unlimitedcareinc.com,51,Suffolk,7,Metropolitan Area Regional Office - Long Island,,,0089L004,Unlimited Care Inc.,333 Westchester Ave.,West Bldg Ste Wg02,White Plains,New York,10604-2911,,,West Bldg Ste Wg02,,New York,,Business Corporation,40.830508,-73.413566,"(40.830508, -73.413566)"
15461,S&A Unified Home Care Inc,LHCSA,Licensed Home Care Services Agency,04/13/2023,41 West Merrick Road,,Freeport,New York,11520,7189806100.0,7188739311.0,,29,Nassau,7,Metropolitan Area Regional Office - Long Island,,,1192L002,"S & A Unified Home Care, Inc.",2729 Coney Island Avenue,,Brooklyn,New York,11235,,,,,New York,,Business Corporation,,,
12503,"Personal Touch Home Care Of Long Island, Inc.",LHCSA,Licensed Home Care Services Agency,10/03/1996,380 Townline Road,,Hauppauge,New York,11788,6312341121.0,7189944937.0,www.pthomecare.com,51,Suffolk,7,Metropolitan Area Regional Office - Long Island,,,0130L002,"Personal Touch Home Care of Long Island, Inc.",1985 Marcus Avenue Suite 202,,Lake Success,New York,11042,,,,,New York,,Business Corporation,,,
14823,Amber Court of Westbury,AH,Adult Home,05/01/1998,3400 Brush Hollow Road,,Westbury,New York,11590,5163343838.0,5163343866.0,www.3ccommunities.com#http://www.3ccommunities.com#,29,Nassau,7,Metropolitan Area Regional Office - Long Island,,,400-F-325,"Amber Court of Westbury, LLC",3400 Brush Hollow Rd,,Westbury,New York,11590-1712,,,,,New York,,LLC,40.775152,-73.559516,"(40.775152, -73.559516)"
9132,NYU Langone Hospital-Long Island Women's Wellness OB/GYN,HOSP-EC,Hospital Extension Clinic,02/24/2010,1 Fulton Avenue,,Hempstead,New York,11550,5166638878.0,5166634828.0,,29,Nassau,7,Metropolitan Area Regional Office - Long Island,NYU Langone Hospitals,1463.0,7002053H,NYU Langone Hospitals,550 First Avenue,,New York,New York,10016,,,,,New York,,Not for Profit Corporation,40.705002,-73.637421,"(40.705002, -73.637421)"
15507,Universal Health Care LLC,LHCSA,Licensed Home Care Services Agency,08/01/2022,69 Broadway,,Hicksville,New York,11801,5168662979.0,7184244970.0,,29,Nassau,7,Metropolitan Area Regional Office - Long Island,,,1214L002,"Universal Health Care, Llc",100-04 Ditmars Boulevard,,East Elmhurst,New York,11369,,,,,New York,,LLC,,,
9642,Sun River Health Kraus Family,DTC-EC,Diagnostic and Treatment Center Extension Clinic,03/14/2014,330 Meeting House Lane,,Southampton,New York,11968,6312681008.0,,,51,Suffolk,7,Metropolitan Area Regional Office - Long Island,Sun River Health,1040.0,5901200R,"Sun River Health Care, Inc.",1037 Main Street,,Peekskill,New York,10566,,,,,New York,,Not for Profit Corporation,40.886414,-72.377892,"(40.886414, -72.377892)"
10118,NYU Langone Perlmutter Cancer Center - Huntington,HOSP-EC,Hospital Extension Clinic,02/06/2018,"789 Park Avenue, 2nd Floor",,Huntington,New York,11743,6318363400.0,,,51,Suffolk,7,Metropolitan Area Regional Office - Long Island,NYU Langone Hospitals,1463.0,7002053H,NYU Langone Hospitals,550 First Avenue,,New York,New York,10016,,,,,New York,,Not for Profit Corporation,40.858297,-73.393264,"(40.858297, -73.393264)"
13591,Right At Home South Shore Long Island,LHCSA,Licensed Home Care Services Agency,05/07/2018,1111 Route 110,Suite 207,Farmingdale,New York,11735,6318155717.0,,,29,Nassau,7,Metropolitan Area Regional Office - Long Island,,,2614L001,Triple J And A Corporation,1111 Route 110,Suite 207,Farmingdale,New York,11735,,,Suite 207,,New York,,Business Corporation,40.731986,-73.422796,"(40.731986, -73.422796)"
5770,St. Charles Rehabilitation,HOSP-EC,Hospital Extension Clinic,08/02/1995,240 Middle Country Road,,Smithtown,New York,11787,,,,51,Suffolk,7,Metropolitan Area Regional Office - Long Island,St. Charles Hospital,896.0,5149001H,"Catholic Health System of Long Island, Inc.",1 Huntington Quadrangle,,Melville,New York,11747,St Charles Hosp and Rehab Ctr Inc,200 Bell Terre Road,,Port Jefferson,New York,11777.0,Not for Profit Corporation,40.855717,-73.180984,"(40.855717, -73.180984)"
14842,Somerset Gardens,EHP,Enriched Housing Program,04/15/1999,150 Sunnyside Boulevard,,Plainview,New York,11803,5165763330.0,5165761112.0,,29,Nassau,7,Metropolitan Area Regional Office - Long Island,,,400-S-318,"Somerset Gardens Senior Care, LLC",150 Sunnyside Boulevard,,Plainview,New York,11803,,,,,New York,,LLC,40.795063,-73.470319,"(40.795063, -73.470319)"
541,North Shore University Hospital,HOSP,Hospital,01/01/1901,300 Community Drive,,Manhasset,New York,11030,5165628730.0,,,29,Nassau,7,Metropolitan Area Regional Office - Long Island,,,2951001H,North Shore University Hospital Inc,300 Community Drive,,Manhasset,New York,11030,"Northwell Healthcare, Inc.",2000 Marcus Ave.,,New Hyde Park,New York,11042.0,Not for Profit Corporation,40.77924,-73.702888,"(40.77924, -73.702888)"
13019,All Metro Health Care,LHCSA,Licensed Home Care Services Agency,09/26/2011,"5225 Nesconset Highway, Building 6",Suite 30-32,Port Jefferson Station,New York,11776,6314731200.0,6314733592.0,www.all-metro.com,51,Suffolk,7,Metropolitan Area Regional Office - Long Island,,,1650L003,"All Metro Home Care Services Of New York, Inc.",70 East Sunrise Highway,Suite 520,Valley Stream,New York,11581,,,Suite 520,,New York,,Business Corporation,,,
13398,"Helping U Homecare, Inc.",LHCSA,Licensed Home Care Services Agency,09/18/2018,100 Mineola Boulevard,,Mineola,New York,11501,9177931300.0,9174634703.0,,29,Nassau,7,Metropolitan Area Regional Office - Long Island,,,2259L002,"Helping U Homecare, Inc.",1897 3rd Avenue,,New York,New York,10029,,,,,New York,,Business Corporation,,,
5701,Fresenius Kidney Care North Bellmore,DTC-EC,Diagnostic and Treatment Center Extension Clinic,01/02/2007,250 Pettit Avenue,,North Bellmore,New York,11710,,,,29,Nassau,7,Metropolitan Area Regional Office - Long Island,FMS-Southern Manhattan Dialysis Center,3414.0,7002176R,New York Dialysis Services Inc,650 Mcclellan,,Schenectady,New York,12304,,,,,New York,,Business Corporation,40.66861,-73.530869,"(40.66861, -73.530869)"
15249,The Chelsea at Brookhaven,EHP,Enriched Housing Program,12/22/2021,1 Meadow Lane,,Yaphank,New York,11980,6318162339.0,,www.chelseaseniorliving.com,51,Suffolk,7,Metropolitan Area Regional Office - Long Island,,,700-S-319,"Brookhaven Senior Living, LLC",316 South Avenue,,Fanwwod,New York,7901,,,,,New York,,LLC,,,
15381,Massapequa Dialysis,DTC-EC,Diagnostic and Treatment Center Extension Clinic,12/05/2022,1071 North Broadway,,Massapequa,New York,11783,5169277192.0,,,29,Nassau,7,Metropolitan Area Regional Office - Long Island,Port Washington Dialysis Center,9926.0,2951206R,"True North Dialysis Center, LLC",1 Cisney Avenue,,Floral Park,New York,11001,,,,,New York,,LLC,,,
13355,Medford Hamlet Home Care,LHCSA,Licensed Home Care Services Agency,04/11/2014,1529 North Ocean Avenue,,Medford,New York,11763,6312890600.0,,,51,Suffolk,7,Metropolitan Area Regional Office - Long Island,,,2181L001,Medford Hamlet Llc,1529 North Ocean Avenue,,Medford,New York,11763,,,,,New York,,LLC,40.810298,-73.018042,"(40.810298, -73.018042)"
12959,Cathie'S Care,LHCSA,Licensed Home Care Services Agency,03/07/2008,1562 New York Avenue,,Huntington Station,New York,11746,6318288874.0,6314730870.0,,51,Suffolk,7,Metropolitan Area Regional Office - Long Island,,,1551L001,Home Sweet Homecare Of Long Island Inc.,1562 New York Avenue,,Huntington Station,New York,11746,,,,,New York,,Business Corporation,,,
550,Syosset Hospital,HOSP,Hospital,11/18/1984,221 Jericho Turnpike,,Syosset,New York,11791,5164966400.0,,,29,Nassau,7,Metropolitan Area Regional Office - Long Island,North Shore University Hospital,541.0,2951001H,North Shore University Hospital Inc,300 Community Drive,,Manhasset,New York,11030,"Northwell Healthcare, Inc.",2000 Marcus Ave.,,New Hyde Park,New York,11042.0,Not for Profit Corporation,40.810238,-73.508614,"(40.810238, -73.508614)"
6578,Stony Brook Sleep Disorders Center,HOSP-EC,Hospital Extension Clinic,11/06/2003,200 Motor Parkway,,Hauppauge,New York,11788,6314449600.0,6314449623.0,,51,Suffolk,7,Metropolitan Area Regional Office - Long Island,Stony Brook University Hospital,245.0,5151001H,State University of New York,178-50 Linden Blvd,,Jamaica,New York,11434,,,,,New York,,State,40.806873,-73.254578,"(40.806873, -73.254578)"
508,Hempstead Park Nursing Home,NH,Residential Health Care Facility - SNF,02/01/1979,800 Front Street,,Hempstead,New York,11550,5167059700.0,,,29,Nassau,7,Metropolitan Area Regional Office - Long Island,,,2906304N,Sunshine Care Corp,800 Front Street,,Hempstead,New York,11550,,,,,New York,,Business Corporation,40.709332,-73.602242,"(40.709332, -73.602242)"
13705,Advent Homecare Agency Inc,LHCSA,Licensed Home Care Services Agency,01/02/2020,249 Post Avenue,,Westbury,New York,11590,5163078065.0,5165009751.0,,29,Nassau,7,Metropolitan Area Regional Office - Long Island,,,2733L001,Advent Homecare Agency Inc,249 Post Avenue,,Westbury,New York,11590,,,,,New York,,Business Corporation,40.75795,-73.58818,"(40.75795, -73.58818)"
15058,Atria Huntington,AH,Adult Home,04/08/1988,165 Beverly Road,,Huntington,New York,11746,6315493533.0,6315470439.0,www.atriaretirementliving.com#http://www.atriaretirementliving.com#,51,Suffolk,7,Metropolitan Area Regional Office - Long Island,,,700-F-931,"ATR New York LH, Inc.",500 N. Hurstbourne Parkway,Suite 200,Louisville,New York,40222,,,Suite 200,,New York,,Business Corporation,40.828988,-73.381883,"(40.828988, -73.381883)"
13124,"Recco Home Care Service, Inc.",LHCSA,Licensed Home Care Services Agency,03/04/2011,472 Montauk Highways,,East Quogue,New York,11942-3927,6316535500.0,6316535937.0,,51,Suffolk,7,Metropolitan Area Regional Office - Long Island,,,1819L005,"Recco Home Care Service, Inc.",524 Hicksville Road,,Massapequa,New York,11758,,,,,New York,,Business Corporation,40.845514,-72.57874,"(40.845514, -72.57874)"
13728,Quality Life Home Health,LHCSA,Licensed Home Care Services Agency,04/26/1989,626 Rxr Plaza,"6th Floor, Suite 679",Uniondale,New York,11556,6313603914.0,6313603923.0,www.morningstarhealth.net,29,Nassau,7,Metropolitan Area Regional Office - Long Island,,,7034L001,"Morning Star Home Health Agency, Inc.",626 Rxr Plaza,"6th Floor, Suite 679",Uniondale,New York,11556,,,"6th Floor, Suite 679",,New York,,Business Corporation,40.718881,-73.583289,"(40.718881, -73.583289)"
896,St. Charles Hospital,HOSP,Hospital,01/01/1901,200 Belle Terre Road,,Port Jefferson,New York,11777,6314746600.0,,https://stcharleshospital.chsli.org/,51,Suffolk,7,Metropolitan Area Regional Office - Long Island,,,5149001H,"Catholic Health System of Long Island, Inc.",1 Huntington Quadrangle,,Melville,New York,11747,St Charles Hosp and Rehab Ctr Inc,200 Bell Terre Road,,Port Jefferson,New York,11777.0,Not for Profit Corporation,40.947533,-73.060081,"(40.947533, -73.060081)"
2636,Manhasset Day Center Clinic,HOSP-EC,Hospital Extension Clinic,01/01/1901,Christ Episcopal Church,,Manhasset,New York,11030,7184707621.0,,,29,Nassau,7,Metropolitan Area Regional Office - Long Island,Long Island Jewish Medical Center,1630.0,7003004H,Long Island Jewish Medical Center,270-05 76 Avenue,,New Hyde Park,New York,11040,"Northwell Quality and Medical Affairs, Inc.",2000 Marcus Ave.,,New Hyde Park,New York,11042.0,Not for Profit Corporation,40.793499,-73.696411,"(40.793499, -73.696411)"
15455,EOM Management LLC,LHCSA,Licensed Home Care Services Agency,07/07/2023,1295 Broadway,,Hewlett,New York,11557,,,,29,Nassau,7,Metropolitan Area Regional Office - Long Island,,,2644L002,"Eom Management, Llc",948 Mcdonald Avenue,2nd Floor,Brooklyn,New York,11215,,,2nd Floor,,New York,,LLC,,,
925,Good Samaritan Hospital Medical Center,HOSP,Hospital,02/01/1979,1000 Montauk Highway,,West Islip,New York,11795,6313763000.0,,,51,Suffolk,7,Metropolitan Area Regional Office - Long Island,,,5154001H,Good Samaritan Hospital Medical Center,1000 Montauk Highway,,West Islip,New York,11795,"Catholic Health System of Long Island, Inc.",1 Huntington Quadrangle,,Melville,New York,11747.0,Not for Profit Corporation,40.696751,-73.286324,"(40.696751, -73.286324)"
10025,Charles Evans Center Inc.,DTC-EC,Diagnostic and Treatment Center Extension Clinic,03/22/2017,305 Oser Avenue,,Hauppauge,New York,11788,6314341715.0,,,51,Suffolk,7,Metropolitan Area Regional Office - Long Island,Charles Evans Center,5771.0,2950212R,"Charles Evans Center, Inc.",857 South Oyster Bay Road,,Bethpage,New York,11714,,,,,New York,,Not for Profit Corporation,40.815947,-73.259574,"(40.815947, -73.259574)"
15039,"Manor Haven Adult Home, Inc.",AH,Adult Home,08/09/1983,222 Columbia Street,,Huntington Station,New York,11746,6315490226.0,6313671240.0,,51,Suffolk,7,Metropolitan Area Regional Office - Long Island,,,700-F-896,"Manor Haven Adult Home, Inc.",222 Columbia Street,,Huntington Station,New York,11746-1275,,,,,New York,,Business Corporation,40.848765,-73.419591,"(40.848765, -73.419591)"
15319,Greenlawn Cancer Center,HOSP-EC,Hospital Extension Clinic,12/07/2021,"270 Pulaski Road, Suite D",,Greenlawn,New York,11740,3475510429.0,,,51,Suffolk,7,Metropolitan Area Regional Office - Long Island,Long Island Jewish Medical Center,1630.0,7003004H,Long Island Jewish Medical Center,270-05 76 Avenue,,New Hyde Park,New York,11040,"Northwell Quality and Medical Affairs, Inc.",2000 Marcus Ave.,,New Hyde Park,New York,11042.0,Not for Profit Corporation,,,
5919,Maxwell Institute of St Vincents,HOSP-EC,Hospital Extension Clinic,01/30/1996,92 Yonkers Avenue,,Tuckahoe,New York,10707,,,,51,Suffolk,7,Metropolitan Area Regional Office - Long Island,St. Joseph's Medical Center,1098.0,5907002H,"St. Josephs Hospital, Yonkers",127 S Broadway,,Yonkers,New York,10701,,,,,New York,,Not for Profit Corporation,40.951229,-73.829147,"(40.951229, -73.829147)"
490,Glen Cove Hospital,HOSP,Hospital,01/01/1901,101 St Andrews Lane,,Glen Cove,New York,11542,5166747588.0,,,29,Nassau,7,Metropolitan Area Regional Office - Long Island,,,2901000H,Glen Cove Hospital,St Andrews Lane,,Glen Cove,New York,11542,"Northwell Quality and Medical Affairs, Inc.",2000 Marcus Ave.,,New Hyde Park,New York,11042.0,Not for Profit Corporation,40.871731,-73.62159,"(40.871731, -73.62159)"
914,Long Island Select Healthcare,DTC,Diagnostic and Treatment Center,11/21/1985,159 Carleton Avenue,,Central Islip,New York,11722,6315435100.0,,,51,Suffolk,7,Metropolitan Area Regional Office - Long Island,,,5154212R,"Long Island Select Healthcare, Inc.",159 Carleton Avenue,,Central Islip,New York,11722,,,,,New York,,Not for Profit Corporation,40.776497,-73.199295,"(40.776497, -73.199295)"
15056,Sunrise of Smithtown,AH,Adult Home,12/01/2012,"30 Hauppauge, Route 111",,Smithtown,New York,11787,6317242299.0,6317242922.0,,51,Suffolk,7,Metropolitan Area Regional Office - Long Island,,,700-F-927,"SZR New York LH, Inc.",4701 Cox Road #301,,Glen Allen,New York,23060,,,,,New York,,Business Corporation,40.853844,-73.188915,"(40.853844, -73.188915)"
15386,St. Johnland Assisted Living,AH,Adult Home,01/13/2023,393 Sunken Meadow Road,,Kings Park,New York,11754,6316634450.0,6316634454.0,,51,Suffolk,7,Metropolitan Area Regional Office - Long Island,,,700-E-294,"St. Johnland Assisted Living, Inc.",393 Sunken Meadow Road,,Kings Park,New York,11754,,,,,New York,,LLC,,,
12833,Comfort Keepers #459,LHCSA,Licensed Home Care Services Agency,11/28/2007,6 Green St,,Floral Park,New York,11001-3602,5163287100.0,5163287125.0,,29,Nassau,7,Metropolitan Area Regional Office - Long Island,,,1283L001,"Nikao Enterprises, Inc.",6 Green Street,,Floral Park,New York,11001-3602,,,,,New York,,Business Corporation,40.714153,-73.694713,"(40.714153, -73.694713)"
6856,Center for Advanced Medicine,HOSP-EC,Hospital Extension Clinic,03/17/2006,450 Lakeville Road,,Lake Success,New York,11042,5167348500.0,,,29,Nassau,7,Metropolitan Area Regional Office - Long Island,North Shore University Hospital,541.0,2951001H,North Shore University Hospital Inc,300 Community Drive,,Manhasset,New York,11030,"Northwell Healthcare, Inc.",2000 Marcus Ave.,,New Hyde Park,New York,11042.0,Not for Profit Corporation,40.753628,-73.703323,"(40.753628, -73.703323)"
6312,Fulton Commons Care Center Inc,NH,Residential Health Care Facility - SNF,10/18/2001,60 Merrick Ave,,East Meadows,New York,11554,5162229300.0,5162229333.0,,29,Nassau,7,Metropolitan Area Regional Office - Long Island,,,2950317N,Fulton Commons Care Center Inc,60 Merrick Ave,,East Meadows,New York,11554,,,,,New York,,Business Corporation,40.721088,-73.577988,"(40.721088, -73.577988)"
15222,"Northwell Health Cancer Institute at Riverhead, A Program of South Shore University Hospital",HOSP-EC,Hospital Extension Clinic,02/03/2021,896 Old Country Road,,Riverhead,New York,11901,,,,51,Suffolk,7,Metropolitan Area Regional Office - Long Island,South Shore University Hospital,924.0,5154000H,South Shore University Hospital,301 East Main Street,,Bay Shore,New York,11706,"Northwell Quality and Medical Affairs, Inc.",2000 Marcus Ave.,,New Hyde Park,New York,11042.0,Not for Profit Corporation,,,
12816,Darby's Home Health Care Services,LHCSA,Licensed Home Care Services Agency,08/03/2007,752A Hempstead Turnpike,Suite 201,Franklin Square,New York,11010,6316478838.0,6319540375.0,,29,Nassau,7,Metropolitan Area Regional Office - Long Island,,,1230L001,Ms. Terry Darby,752A Hempstead Turnpike,Suite 201,Franklin Square,New York,11010,,,Suite 201,,New York,,Individual,,,
15026,Brentwood Adult Home,AH,Adult Home,04/24/1989,147 Second Avenue,,Brentwood,New York,11717,6312737204.0,6319519161.0,,51,Suffolk,7,Metropolitan Area Regional Office - Long Island,,,700-F-013,Sarah Halpert Simon Halpert,147 Second Avenue,,Brentwood,New York,11717-4809,,,,,New York,,Individual,40.778863,-73.232392,"(40.778863, -73.232392)"
3137,Fresenius Kidney Care Hempstead,DTC-EC,Diagnostic and Treatment Center Extension Clinic,01/02/2007,615 Peninsula Boulevard,,Hempstead,New York,11550,5164836702.0,,,29,Nassau,7,Metropolitan Area Regional Office - Long Island,FMS-Southern Manhattan Dialysis Center,3414.0,7002176R,New York Dialysis Services Inc,650 Mcclellan,,Schenectady,New York,12304,,,,,New York,,Business Corporation,40.697037,-73.629593,"(40.697037, -73.629593)"
13525,Trusting Hands Homecare Agency,LHCSA,Licensed Home Care Services Agency,02/12/2020,72 Guy Lombardo Avenue,,Freeport,New York,11520,5166295444.0,5166141001.0,,29,Nassau,7,Metropolitan Area Regional Office - Long Island,,,2490L001,Trusting Hands H.S. LLC,72 Guy Lombardo Avenue,,Freeport,New York,11520,,,,,New York,,LLC,40.654477,-73.585158,"(40.654477, -73.585158)"
5718,LISH at Port Jefferson Station,DTC-EC,Diagnostic and Treatment Center Extension Clinic,06/26/1995,51-33 Terryville Road,,Port Jefferson Station,New York,11776,,,,51,Suffolk,7,Metropolitan Area Regional Office - Long Island,Long Island Select Healthcare,914.0,5154212R,"Long Island Select Healthcare, Inc.",159 Carleton Avenue,,Central Islip,New York,11722,,,,,New York,,Not for Profit Corporation,40.927601,-73.053062,"(40.927601, -73.053062)"
14819,The Bristal at Massapequa,AH,Adult Home,08/07/2006,400 County Line Road,,Massapequa,New York,11758,5166910706.0,5166917204.0,,29,Nassau,7,Metropolitan Area Regional Office - Long Island,,,400-F-315,"EB CARE at Massapequa, LLC",400 County Line Road,,Massapequa,New York,11758-1760,,,,,New York,,LLC,40.6787,-73.4247,"(40.6787, -73.4247)"
12851,"Long Island Health Care, Llc",LHCSA,Licensed Home Care Services Agency,10/01/2005,99 Tulip Avenue,"Suite 201, 202, 203",Floral Park,New York,11001,5163521294.0,5163289150.0,,29,Nassau,7,Metropolitan Area Regional Office - Long Island,,,1330L001,"Long Island Health Care, Llc",99 Tulip Avenue,Suite 201,Floral Park,New York,11001-1959,,,Suite 201,,New York,,LLC,40.721407,-73.697251,"(40.721407, -73.697251)"
908,Allegria Nursing & Rehabilitation Center of Port Jefferson,NH,Residential Health Care Facility - SNF,03/27/1979,1360 Route 112,,Port Jefferson Station,New York,11776,6314737100.0,,,51,Suffolk,7,Metropolitan Area Regional Office - Long Island,,,5151323N,"VJJ Holding Company, LLC",1360 Route 112,,Port Jefferson Station,New York,11776,,,,,New York,,LLC,40.91597,-73.034683,"(40.91597, -73.034683)"
8520,Hauppauge Dialysis Center,DTC,Diagnostic and Treatment Center,07/17/2007,30 Central Avenue,,Hauppauge,New York,11788,6317616605.0,,,51,Suffolk,7,Metropolitan Area Regional Office - Long Island,,,5154214R,"Hauppauge Dialysis Center, LLC",30 Central Avenue,,Hauppauge,New York,11788,,,,,New York,,LLC,40.807152,-73.22007,"(40.807152, -73.22007)"
12652,"Bayada Home Health Care, Inc.",LHCSA,Licensed Home Care Services Agency,10/25/1999,825 East Gate Blvd,Suite 201,Garden City,New York,11530-2124,5162220092.0,5162220266.0,www.bayada.com,29,Nassau,7,Metropolitan Area Regional Office - Long Island,,,0853L001,"Bayada Home Health Care, Inc.",825 East Gate Blvd.,Suite 201,Garden City,New York,11530,,,Suite 201,,New York,,Not for Profit Corporation,40.741522,-73.606561,"(40.741522, -73.606561)"
14810,Christian Fellowship House,AH,Adult Home,10/09/1985,369 Split Rock Road,,Syosset,New York,11791,5169226040.0,5169226130.0,www.christianfellowshiphouse.com#http://www.christianfellowshiphouse.com#,29,Nassau,7,Metropolitan Area Regional Office - Long Island,,,400-E-264,Christian Fellowship,369 Split Rock Road,,Syosset,New York,11791-1508,,,,,New York,,Not for Profit Corporation,40.838692,-73.514648,"(40.838692, -73.514648)"
534,A Holly Patterson Extended Care Facility,NH,Residential Health Care Facility - SNF,09/27/1979,875 Jerusalem Avenue,,Uniondale,New York,11553,5165721400.0,,,29,Nassau,7,Metropolitan Area Regional Office - Long Island,,,2950302N,Nassau Health Care Corporation,240 Old Country Road,,Mineola,New York,11501,,,,,New York,,Public Benefit Corporation,40.697464,-73.585617,"(40.697464, -73.585617)"
9749,Precision CyberKnife of New York,HOSP-EC,Hospital Extension Clinic,11/13/2014,181 Belle Meade Road,,East Setauket,New York,11733,6316755399.0,,,51,Suffolk,7,Metropolitan Area Regional Office - Long Island,John T Mather Memorial Hospital of Port Jefferson New York Inc,895.0,5149000H,John T Mather of Port Jefferson NY Inc,North Country Road,,Port Jefferson,New York,11777,"Northwell Healthcare, Inc.",2000 Marcus Ave.,,New Hyde Park,New York,11042.0,Not for Profit Corporation,40.901283,-73.088455,"(40.901283, -73.088455)"
7247,Stonybrook Dialysis Clinic,DTC,Diagnostic and Treatment Center,07/28/1997,26 Research Way,,East Setauket,New York,11733,6314440186.0,,,51,Suffolk,7,Metropolitan Area Regional Office - Long Island,,,5151205R,"Dialysis Clinic, Inc","1633 Church Street, Suite 500",,Nashville,New York,37203,,,,,New York,,Not for Profit Corporation,40.901566,-73.086426,"(40.901566, -73.086426)"
6462,Medford Multicare Center for Living,NH,Residential Health Care Facility - SNF,09/03/2002,3115 Horseblock Road,,Medford,New York,11763,6317303000.0,6312860703.0,,51,Suffolk,7,Metropolitan Area Regional Office - Long Island,,,5151319N,"The Nursing Care Center at Medford, Inc.",3115 Horseblock Road,,Medford,New York,11763,,,,,New York,,Business Corporation,40.825726,-72.985023,"(40.825726, -72.985023)"
4790,FMS-Central Suffolk Artificial Kidney Center,DTC-EC,Diagnostic and Treatment Center Extension Clinic,09/22/1992,"5225 Nesconset Highway, Bldg #9",,Port Jefferson Station,New York,11776,6313315600.0,6313316096.0,,51,Suffolk,7,Metropolitan Area Regional Office - Long Island,FMS-Southern Manhattan Dialysis Center,3414.0,7002176R,New York Dialysis Services Inc,650 Mcclellan,,Schenectady,New York,12304,,,,,New York,,Business Corporation,40.927387,-73.043007,"(40.927387, -73.043007)"
552,Plainview Hospital,HOSP,Hospital,02/01/1979,888 Old Country Road,,Plainview,New York,11803,5167193000.0,,,29,Nassau,7,Metropolitan Area Regional Office - Long Island,,,2952005H,Plainview Hospital,888 Old County Road,,Plainview,New York,11803,"Northwell Quality and Medical Affairs, Inc.",2000 Marcus Ave.,,New Hyde Park,New York,11042.0,Not for Profit Corporation,40.774471,-73.478264,"(40.774471, -73.478264)"
15024,Pleasant Gardens Home for Adults,AH,Adult Home,11/28/1989,396 Middle Road,,Bayport,New York,11705,6314721047.0,6314729483.0,www.mercyhaven.org#http://www.mercyhaven.org#,51,Suffolk,7,Metropolitan Area Regional Office - Long Island,,,700-E-282,"Mercy Haven, Inc.",396 Middle Road,,Bayport,New York,11705-1928,,,,,New York,,Not for Profit Corporation,40.735472,-73.063662,"(40.735472, -73.063662)"
3572,Planned Parenthood Hudson Peconic - Riverhead,DTC-EC,Diagnostic and Treatment Center Extension Clinic,01/26/1998,877 East Main Street,,Riverhead,New York,11901,5163617526.0,,,51,Suffolk,7,Metropolitan Area Regional Office - Long Island,"Planned Parenthood Hudson Peconic, Inc",1049.0,5902208R,"Planned Parenthood Hudson Peconic, Inc.",570 Taxter Road,Suite 250,Elmsford,New York,10523,,,Suite 250,,New York,,Not for Profit Corporation,40.923716,-72.650429,"(40.923716, -72.650429)"
7751,Gladys Brooks Sports Rehab Center,HOSP-EC,Hospital Extension Clinic,04/15/1999,46520 North Road,,Southold,New York,11971,,,,51,Suffolk,7,Metropolitan Area Regional Office - Long Island,Stony Brook University Hospital,245.0,5151001H,State University of New York,178-50 Linden Blvd,,Jamaica,New York,11434,,,,,New York,,State,41.073666,-72.427689,"(41.073666, -72.427689)"
13737,"Better Home Health Care, Inc.",LHCSA,Licensed Home Care Services Agency,07/03/1990,202 Merrick Rd,,Rockville Centre,New York,11570-4111,5167633260.0,5167634662.0,www.betterhomecare.com,29,Nassau,7,Metropolitan Area Regional Office - Long Island,,,9017L001,"Better Home Health Care, Inc.",202 Merrick Road,,Rockville Centre,New York,11570-4111,,,,,New York,,Business Corporation,,,
9233,Good Samaritan Hospital Women's imaging Center,HOSP-EC,Hospital Extension Clinic,06/16/2011,735 Montauk Highway,,West Islip,New York,11795,6313764144.0,,,51,Suffolk,7,Metropolitan Area Regional Office - Long Island,Good Samaritan Hospital Medical Center,925.0,5154001H,Good Samaritan Hospital Medical Center,1000 Montauk Highway,,West Islip,New York,11795,"Catholic Health System of Long Island, Inc.",1 Huntington Quadrangle,,Melville,New York,11747.0,Not for Profit Corporation,40.695492,-73.298157,"(40.695492, -73.298157)"
9710,"Great South Bay Endoscopy Center, LLC",DTC,Diagnostic and Treatment Center,08/05/2014,260 Patchogue Yaphank Road,,East Patchogue,New York,11772,,,,51,Suffolk,7,Metropolitan Area Regional Office - Long Island,,,5151209R,"Great South Bay Endoscopy Center, LLC","260 Patchogue Yaphank Road, Suite B",,East Patchogue,New York,11772,,,,,New York,,LLC,40.774773,-72.977829,"(40.774773, -72.977829)"
15041,"Fairlawn Adult Home, Inc.",AH,Adult Home,08/09/1983,301 Eighth Avenue,,East Northport,New York,11731,6317577666.0,6317572959.0,,51,Suffolk,7,Metropolitan Area Regional Office - Long Island,,,700-F-898,"Fairlawn Adult Home, Inc.",301 Eighth Avenue,,East Northport,New York,11731-2118,,,,,New York,,Business Corporation,40.87689,-73.329264,"(40.87689, -73.329264)"
13431,South Bay Licensed Home Care Service Agency,LHCSA,Licensed Home Care Services Agency,01/27/2016,33 Cottontail Run,,Center Moriches,New York,11934,6318780758.0,6318780776.0,,51,Suffolk,7,Metropolitan Area Regional Office - Long Island,,,2311L001,South Bay Adult Home And Alp Llc,33 Cottontail Run,,Center Moriches,New York,11934,,,,,New York,,LLC,40.789085,-72.8138,"(40.789085, -72.8138)"
13091,Maple Pointe Senior Care Lhcsa,LHCSA,Licensed Home Care Services Agency,04/12/2010,260 Maple Avenue,,Rockville Center,New York,11570-4368,5167644848.0,5167644442.0,,29,Nassau,7,Metropolitan Area Regional Office - Long Island,,,1760L001,"Maple Pointe Senior Care, Llc",260 Maple Avenue,,Rockville Center,New York,11570,,,,,New York,,LLC,40.658021,-73.631837,"(40.658021, -73.631837)"
513,Mercy Hospital,HOSP,Hospital,08/01/1979,1000 North Village Avenue,,Rockville Centre,New York,11570,5167052525.0,,,29,Nassau,7,Metropolitan Area Regional Office - Long Island,,,2909000H,Mercy Medical Center,393 Front Street,,Hempstead,New York,11530,"Catholic Health System of Long Island, Inc.",1 Huntington Quadrangle,,Melville,New York,11747.0,Not for Profit Corporation,40.688408,-73.63324,"(40.688408, -73.63324)"
13192,"Marina Homecare Agency Of Ny, Inc.",LHCSA,Licensed Home Care Services Agency,03/27/2015,31 Main Road,Suite 9,Riverhead,New York,11901,6313696080.0,6313696080.0,,51,Suffolk,7,Metropolitan Area Regional Office - Long Island,,,1928L001,"Marina Homecare Agency Of Ny, Inc.",31 Main Road,Suite 9,Riverhead,New York,11901,,,Suite 9,,New York,,Business Corporation,40.937027,-72.646112,"(40.937027, -72.646112)"
12743,"Infusion Healthcare, Llc",LHCSA,Licensed Home Care Services Agency,09/22/2004,317 Nassau Boulevard,,Garden City,New York,11530-5313,5162922961.0,5162925154.0,,29,Nassau,7,Metropolitan Area Regional Office - Long Island,,,1069L001,"Infusion Healthcare, Llc",317 Nassau Boulevard,,Garden City South,New York,11530-5313,,,,,New York,,LLC,40.7159,-73.6611,"(40.7159, -73.6611)"
15071,Gurwin Jewish Fay J. Lindner Residence,EHP,Enriched Housing Program,06/06/2001,50 Hauppauge Road,,Commack,New York,11725,6317158500.0,6317158580.0,www.Gurwin.org#http://www.Gurwin.org#,51,Suffolk,7,Metropolitan Area Regional Office - Long Island,,,700-S-289,"Gurwin Jewish - Fay J. Lindner Residences, Inc.",50 Hauppauge Road,,Commack,New York,11725-4403,,,,,New York,,Not for Profit Corporation,40.829629,-73.297862,"(40.829629, -73.297862)"
9960,The NSUH Imaging Center at Smithtown,HOSP-EC,Hospital Extension Clinic,09/22/2016,226 Middle Country Road,,Smithtown,New York,11787,,,,51,Suffolk,7,Metropolitan Area Regional Office - Long Island,North Shore University Hospital,541.0,2951001H,North Shore University Hospital Inc,300 Community Drive,,Manhasset,New York,11030,"Northwell Healthcare, Inc.",2000 Marcus Ave.,,New Hyde Park,New York,11042.0,Not for Profit Corporation,40.855995,-73.182725,"(40.855995, -73.182725)"
552,Plainview Hospital,HOSP,Hospital,02/01/1979,888 Old Country Road,,Plainview,New York,11803,5167193000.0,,,29,Nassau,7,Metropolitan Area Regional Office - Long Island,,,2952005H,Plainview Hospital,888 Old County Road,,Plainview,New York,11803,"Northwell Healthcare, Inc.",2000 Marcus Ave.,,New Hyde Park,New York,11042.0,Not for Profit Corporation,40.774471,-73.478264,"(40.774471, -73.478264)"
3983,Nassau Day Training Program,HOSP-EC,Hospital Extension Clinic,05/26/1988,4 Kuhl Avenue,,Hicksville,New York,11801,7184707621.0,,,29,Nassau,7,Metropolitan Area Regional Office - Long Island,Long Island Jewish Medical Center,1630.0,7003004H,Long Island Jewish Medical Center,270-05 76 Avenue,,New Hyde Park,New York,11040,"Northwell Healthcare, Inc.",2000 Marcus Ave.,,New Hyde Park,New York,11042.0,Not for Profit Corporation,40.766811,-73.541031,"(40.766811, -73.541031)"
10053,East Islip Dialysis,DTC,Diagnostic and Treatment Center,07/01/2017,200 Carleton Avenue,,East Islip,New York,11730,,,,51,Suffolk,7,Metropolitan Area Regional Office - Long Island,,,5154213R,"True North II DC, LLC",200 Carleton Avenue,,East Islip,New York,11730,,,,,New York,,LLC,40.740743,-73.193226,"(40.740743, -73.193226)"
13700,"East End Home Care, Inc.",LHCSA,Licensed Home Care Services Agency,11/14/2019,43375 Route 48,"Unit 2, P.O. Box 694",Southold,New York,11971,6318765295.0,6318765296.0,,51,Suffolk,7,Metropolitan Area Regional Office - Long Island,,,2729L001,"East End Home Care, Inc.",43375 Route 48,"Unit 2, P.O. Box 694",Southold,New York,11971,,,"Unit 2, P.O. Box 694",,New York,,Business Corporation,41.678674,-74.162941,"(41.678674, -74.162941)"
13120,"Recco Home Care Service, Inc.",LHCSA,Licensed Home Care Services Agency,03/04/2011,524 Hicksville Road,,Massapequa,New York,11758,5167986688.0,5167986740.0,,29,Nassau,7,Metropolitan Area Regional Office - Long Island,,,1819L001,"Recco Home Care Service, Inc.",524 Hicksville Road,,Massapequa,New York,11758,,,,,New York,,Business Corporation,40.678405,-73.473936,"(40.678405, -73.473936)"
518,Long Island Jewish Valley Stream,HOSP,Hospital,01/01/1901,900 Franklin Avenue,,Valley Stream,New York,11580,5162566000.0,,,29,Nassau,7,Metropolitan Area Regional Office - Long Island,Long Island Jewish Medical Center,1630.0,7003004H,Long Island Jewish Medical Center,270-05 76 Avenue,,New Hyde Park,New York,11040,"Northwell Quality and Medical Affairs, Inc.",2000 Marcus Ave.,,New Hyde Park,New York,11042.0,Not for Profit Corporation,40.681789,-73.685814,"(40.681789, -73.685814)"
9726,Advantage Care Diagnostic and Treatment Center - Freeport,DTC-EC,Diagnostic and Treatment Center Extension Clinic,09/24/2014,230 Hanse Avenue,,Freeport,New York,11520,,,,29,Nassau,7,Metropolitan Area Regional Office - Long Island,"Advantage Care Diagnostic and Treatment Center, Inc.",6702.0,2987200R,"Advantage Care Diagnostic and Treatment Center, Inc.",189 Wheatley Road,,Brookville,New York,11545,,,,,New York,,Not for Profit Corporation,40.645609,-73.570932,"(40.645609, -73.570932)"
9068,Long Island Renal Care,DTC-EC,Diagnostic and Treatment Center Extension Clinic,10/19/2009,3460 Great Neck Road,,Amityville,New York,11701,6315326969.0,6315326958.0,,51,Suffolk,7,Metropolitan Area Regional Office - Long Island,Bronx Dialysis Center,6661.0,7000272R,"Knickerbocker Dialysis, Inc",1615-1617 Eastchester Road,,Bronx,New York,10461,,,,,New York,,Business Corporation,40.702305,-73.415138,"(40.702305, -73.415138)"
2636,Manhasset Day Center Clinic,HOSP-EC,Hospital Extension Clinic,01/01/1901,Christ Episcopal Church,,Manhasset,New York,11030,7184707621.0,,,29,Nassau,7,Metropolitan Area Regional Office - Long Island,Long Island Jewish Medical Center,1630.0,7003004H,Long Island Jewish Medical Center,270-05 76 Avenue,,New Hyde Park,New York,11040,"Northwell Healthcare, Inc.",2000 Marcus Ave.,,New Hyde Park,New York,11042.0,Not for Profit Corporation,40.793499,-73.696411,"(40.793499, -73.696411)"
10134,Port Jefferson Ambulatory Surgery Center,DTC,Diagnostic and Treatment Center,02/13/2018,1500 Route 112,,Port Jefferson Station,New York,11776,6318285554.0,,,51,Suffolk,7,Metropolitan Area Regional Office - Long Island,,,5151210R,"Port Jefferson ASC, LLC",1500 Route 112,,Port Jefferson Station,New York,11776,,,,,New York,,LLC,40.913174,-73.030971,"(40.913174, -73.030971)"
15627,Orthopedic Spine & Sports Medicine Surgical Institute,DTC,Diagnostic and Treatment Center,03/28/2024,115 Eileen Way,,Syosset,New York,11791,5164409400.0,,,29,Nassau,7,Metropolitan Area Regional Office - Long Island,,,2952205R,"Syosset Ambulatory Surgery Center, LLC",115 Eileen Way,,Syosset,New York,11791,,,,,New York,,LLC,,,
15073,"The Shores at Peconic Landing Assisted Living Residence, Inc.",EHP,Enriched Housing Program,02/26/2003,1600 Brecknock Road,,Greenport,New York,11944,6314773800.0,6314770061.0,www.peconiclanding.com#http://www.peconiclanding.com/#,51,Suffolk,7,Metropolitan Area Regional Office - Long Island,,,700-S-298,"The Shores at Peconic Landing Assisted Living Residence, Inc.",1500 Brecknock Road,,Greenport,New York,11944-3117,,,,,New York,,Not for Profit Corporation,41.119609,-72.361823,"(41.119609, -72.361823)"
13816,"Long Island Care At Home, Ltd.",LHCSA,Licensed Home Care Services Agency,05/19/1993,325 Broadway,,Bethpage,New York,11714,5167940700.0,5167940787.0,,29,Nassau,7,Metropolitan Area Regional Office - Long Island,,,9376L001,"Long Island Care At Home, Ltd.",325 Broadway,,Bethpage,New York,11714,,,,,New York,,Business Corporation,,,
12755,"Premier Home Health Care Services, Inc.",LHCSA,Licensed Home Care Services Agency,02/13/2012,900 Merchants Concourse,Suite 212,Westbury,New York,11590,5162921500.0,5162923917.0,www.premierhomehealthcare.com,29,Nassau,7,Metropolitan Area Regional Office - Long Island,,,1086L013,"Premier Home Health Care Services, Inc.",1430 Broadway,Suite 1615,New York,New York,10018,,,Suite 1615,,New York,,Business Corporation,,,
3391,North Shore Home Care LTHHCP,LTHHCP,Long Term Home Health Care Program,08/08/1985,972 Brush Hollow Road,,Westbury,New York,11590,5168765300.0,5168765284.0,,29,Nassau,7,Metropolitan Area Regional Office - Long Island,,,2910901L,North Shore University Hospital Inc,300 Community Drive,,Manhasset,New York,11030,"Northwell Healthcare, Inc.",2000 Marcus Ave.,,New Hyde Park,New York,11042.0,Not for Profit Corporation,40.772808,-73.561164,"(40.772808, -73.561164)"
12780,"We Care Staffing, Inc.",LHCSA,Licensed Home Care Services Agency,06/07/2006,1300 Veterans Memorial Highway,,Hauppauge,New York,11788-3076,6315824601.0,6312329716.0,www.wecarestaffinginc.com,51,Suffolk,7,Metropolitan Area Regional Office - Long Island,,,1151L001,"We Care Staffing, Inc.",1300 Veterans Memorial Highway,,Hauppauge,New York,11788-0164,,,,,New York,,Business Corporation,40.813809,-73.19177,"(40.813809, -73.19177)"
9561,SUNY at Stony Brook School of Dental Medicine,,Mobile Diagnostic and Treatment Center Extension Clinic,10/09/2013,Building 310 - Sullivan Hall,,Stony Brook,New York,11794,6316328966.0,,,51,Suffolk,7,Metropolitan Area Regional Office - Long Island,SUNY at Stony Brook School of Dental Medicine Dental Care Center,905.0,5151201R,SUNY at Stony Brook,178-50 Linden Blvd,,Jamaica,New York,11434,,,,,New York,,State,40.903525,-73.119785,"(40.903525, -73.119785)"
4219,Ronkonkoma Health Center,DTC-EC,Diagnostic and Treatment Center Extension Clinic,01/16/1990,161 Lake Shore Road,,Lake Ronkonkoma,New York,11779,5167376689.0,,,51,Suffolk,7,Metropolitan Area Regional Office - Long Island,Damian Family Care Center,6067.0,7003246R,Schenectady County,Unknown,,Scotia,New York,12302,,,,,New York,,County,40.82571,-73.116646,"(40.82571, -73.116646)"
7106,St Charles Rehabilitation,HOSP-EC,Hospital Extension Clinic,08/01/1997,1895 Walt Whitman Road,,Melville,New York,11747,,,,51,Suffolk,7,Metropolitan Area Regional Office - Long Island,St. Charles Hospital,896.0,5149001H,"Catholic Health System of Long Island, Inc.",1 Huntington Quadrangle,,Melville,New York,11747,St Charles Hosp and Rehab Ctr Inc,200 Bell Terre Road,,Port Jefferson,New York,11777.0,Not for Profit Corporation,40.767159,-73.424843,"(40.767159, -73.424843)"
6472,Dematteis Center,HOSP-EC,Hospital Extension Clinic,07/25/2000,101 Northern Boulevard,,Greenvale,New York,11548,5166292033.0,,,29,Nassau,7,Metropolitan Area Regional Office - Long Island,St. Francis Hospital & Heart Center,563.0,2953000H,St Francis Hospital Inc,1 Huntington Quadrangle Suite 4 Co4,,Melville,New York,11747,"Catholic Health System of Long Island, Inc.",1 Huntington Quadrangle,,Melville,New York,11747.0,Not for Profit Corporation,40.811413,-73.622551,"(40.811413, -73.622551)"
7755,St Charles Rehabilitation,HOSP-EC,Hospital Extension Clinic,04/26/1999,3279 Veterans Memorial Highway,,Ronkonkoma,New York,11779,,,,51,Suffolk,7,Metropolitan Area Regional Office - Long Island,St. Charles Hospital,896.0,5149001H,"Catholic Health System of Long Island, Inc.",1 Huntington Quadrangle,,Melville,New York,11747,St Charles Hosp and Rehab Ctr Inc,200 Bell Terre Road,,Port Jefferson,New York,11777.0,Not for Profit Corporation,40.787727,-73.132027,"(40.787727, -73.132027)"
9186,The Amsterdam at Harborside,NH,Residential Health Care Facility - SNF,01/05/2011,300 East Overlook,,Port Washington,New York,11050,5164726632.0,5164726694.0,,29,Nassau,7,Metropolitan Area Regional Office - Long Island,,,2951308N,"Amsterdam House Continuing Care Retirement Community, Inc",300 East Overlook,,Port Washington,New York,11050,,,,,New York,,Not for Profit Corporation,40.827885,-73.665306,"(40.827885, -73.665306)"
15046,The Arbors at Bohemia,AH,Adult Home,01/10/1977,1065 Smithtown Avenue,,Bohemia,New York,11716,6315673113.0,6315673116.0,www.seniorcareassistedliving.com#http://www.seniorcareassistedliving.com#,51,Suffolk,7,Metropolitan Area Regional Office - Long Island,,,700-F-913,"Arcadia Management, Inc.",1515 Veterans Memorial Highway,,Islandia,New York,11749-4848,,,,,New York,,Business Corporation,40.768171,-73.106652,"(40.768171, -73.106652)"
5534,Huntington Artificial Kidney Center,DTC-EC,Diagnostic and Treatment Center Extension Clinic,10/28/1994,1725 North Ocean Ave,,Medford,New York,11763,5162898000.0,,,51,Suffolk,7,Metropolitan Area Regional Office - Long Island,Huntington Artificial Kidney Center,3396.0,5153202R,Huntington Artificial Kidney Center Ltd,256 Broadway,,Huntington Station,New York,11746,,,,,New York,,Business Corporation,40.82077,-73.019897,"(40.82077, -73.019897)"
9004,"Long Island Community Hospital Outpatient Imaging, Women's Imaging and Cardiac Rehabilitation Centers",HOSP-EC,Hospital Extension Clinic,12/31/2008,100 Hospital Road Suite 121,,Patchogue,New York,11772,6316547360.0,,,51,Suffolk,7,Metropolitan Area Regional Office - Long Island,Long Island Community Hospital,885.0,5123000H,Long Island Community Hospital at NYU Langone Health,101 Hospital Road,,Patchogue,New York,11772,NYU Langone Health System,550 First Avenue,,New York,New York,10016.0,Not for Profit Corporation,40.779404,-72.978226,"(40.779404, -72.978226)"
13110,The Home Agency,LHCSA,Licensed Home Care Services Agency,05/16/2012,34 Sunset Lane,,Patchogue,New York,11772,6317308500.0,6317308560.0,,51,Suffolk,7,Metropolitan Area Regional Office - Long Island,,,1804L001,"Nannies For Grannies, Inc.",34 Sunset Lane,,Patchogue,New York,11772,,,,,New York,,Business Corporation,40.748854,-73.020164,"(40.748854, -73.020164)"
13743,"Marian Care, Inc.",LHCSA,Licensed Home Care Services Agency,05/17/1991,467 Willis Avenue,,Williston Park,New York,11596,5167418600.0,5164083111.0,,29,Nassau,7,Metropolitan Area Regional Office - Long Island,,,9061L001,"Marian Care, Inc.",467 Willis Avenue,,Williston Park,New York,11596-1817,,,,,New York,,Business Corporation,40.756807,-73.645562,"(40.756807, -73.645562)"
504,South Shore Rehabilitation and Nursing Center,NH,Residential Health Care Facility - SNF,01/01/1901,275 W Merrick Road,,Freeport,New York,11520,5166234000.0,5163798440.0,,29,Nassau,7,Metropolitan Area Regional Office - Long Island,,,2904302N,"South Shore Rehabilitation, LLC",275 W. Merrick Road,,Freeport,New York,11520,,,,,New York,,LLC,40.652256,-73.591904,"(40.652256, -73.591904)"
13789,"Optum Infusion Services 100, Inc.",LHCSA,Licensed Home Care Services Agency,06/01/1992,931 Conklin Street,Suite D,Farmingdale,New York,11735-2439,6313919670.0,6313919686.0,,51,Suffolk,7,Metropolitan Area Regional Office - Long Island,,,9296L001,"Optum Infusion Services 100, Inc.",15529 College Boulevard,,Lenexa,New York,66219,,,,,New York,,Business Corporation,40.738059,-73.426675,"(40.738059, -73.426675)"
14817,The Bristal at North Hills,AH,Adult Home,03/31/2006,99 South Service Road,,North Hills,New York,11040,5162333100.0,5162333300.0,,29,Nassau,7,Metropolitan Area Regional Office - Long Island,,,400-F-310,"Engel Burman Senior Housing at North Hills, Inc.",99 South Service Road,,North Hills,New York,11040-1055,,,,,New York,,Business Corporation,40.771042,-73.686638,"(40.771042, -73.686638)"
15398,Ultimate Care INC,LHCSA,Licensed Home Care Services Agency,04/06/2023,"250 Fulton Avenue, Suite 511",,Hempstead,New York,11550,,,,29,Nassau,7,Metropolitan Area Regional Office - Long Island,,,7017L003,"Ultimate Care, Inc.",1000 Gates Avenue,4th Floor,Brooklyn,New York,11211,,,4th Floor,,New York,,Business Corporation,,,
6159,South Nassau Outpatient Dialysis Center,HOSP-EC,Hospital Extension Clinic,05/02/2000,3618 Oceanside Rd,,Oceanside,New York,11572,5162558000.0,,,29,Nassau,7,Metropolitan Area Regional Office - Long Island,Mount Sinai South Nassau,527.0,2950001H,South Nassau Communities Hospital Inc,2445 Oceanside Road,,Oceanside,New York,11572,"Mount Sinai Hospitals Group, Inc.",One Gustave L. Levy Place,,New York,New York,10029.0,Not for Profit Corporation,40.62318,-73.632523,"(40.62318, -73.632523)"
560,Central Island Healthcare,NH,Residential Health Care Facility - SNF,03/11/1980,825 Old Country Rd,,Plainview,New York,11803,5164330600.0,5164335512.0,,29,Nassau,7,Metropolitan Area Regional Office - Long Island,,,2952308N,"Ozone Acquisition, LLC",825 Old Country Road,,Plainview,New York,11803,,,,,New York,,LLC,40.773899,-73.480408,"(40.773899, -73.480408)"
12771,"Maxim Of New York, Llc",LHCSA,Licensed Home Care Services Agency,06/04/2004,900 Merchants Concourse,Suite Ll-6,Westbury,New York,11590,5165656322.0,8777172778.0,www.maximhealthcare.com,29,Nassau,7,Metropolitan Area Regional Office - Long Island,,,1121L006,"Maxim Of New York, Llc",777 Westchester Avenue,Suite 110,White Plains,New York,10604,,,Suite 110,,New York,,LLC,40.744806,-73.592075,"(40.744806, -73.592075)"
12655,"Bayada Home Health Care, Inc.",LHCSA,Licensed Home Care Services Agency,04/21/2011,700 Veterans Highway,Suite 200 & 207,Hauppauge,New York,11788,6318633700.0,6318633705.0,www.bayada.com,51,Suffolk,7,Metropolitan Area Regional Office - Long Island,,,0853L004,"Bayada Home Health Care, Inc.",825 East Gate Blvd.,Suite 201,Garden City,New York,11530,,,Suite 201,,New York,,Not for Profit Corporation,40.821848,-73.207776,"(40.821848, -73.207776)"
14832,Orchard Estate of Woodbury,AH,Adult Home,09/05/2019,900 Woodbury Road,,Woodbury,New York,11797,5164078096.0,5162619024.0,www.benchmarkseniorliving.com/senior-living/ny/woodbury#http://www.benchmarkseni,29,Nassau,5,Metropolitan Area Regional Office - New York City,,,400-F-339,"BSL Woodbury Operations, Inc.","201 Jones Road, 3rd Floor West",,Waltham,New York,2451,,,,,New York,,Business Corporation,40.797497,-73.486104,"(40.797497, -73.486104)"
13164,Amber Court At Home Lhcsa,LHCSA,Licensed Home Care Services Agency,09/11/2013,3400  Brush Hollow Road,,Westbury,New York,11590,7183794400.0,7183202442.0,,29,Nassau,7,Metropolitan Area Regional Office - Long Island,,,1875L002,"Aljud Licensed Home Care Services, Llc",650 East 104th Street,,Brooklyn,New York,11236,,,,,New York,,LLC,40.775152,-73.559516,"(40.775152, -73.559516)"
13210,"Tri-Med Home Care Services, Inc.",LHCSA,Licensed Home Care Services Agency,02/21/2013,175 Fulton Avenue,Suite 201,Hempstead,New York,11550,5162182700.0,5162182999.0,,29,Nassau,7,Metropolitan Area Regional Office - Long Island,,,1961L001,"Tri-Med Home Care Services, Inc.",175 Fulton Avenue,Suite 201,Hempstead,New York,11550,,,Suite 201,,New York,,Business Corporation,,,
528,Nassau University Medical Center,HOSP,Hospital,01/01/1901,2201 Hempstead Turnpike,,East Meadow,New York,11554,5165720123.0,,,29,Nassau,7,Metropolitan Area Regional Office - Long Island,,,2950002H,Nassau Health Care Corporation,240 Old Country Road,,Mineola,New York,11501,,,,,New York,,Public Benefit Corporation,40.725353,-73.554321,"(40.725353, -73.554321)"
15319,Greenlawn Cancer Center,HOSP-EC,Hospital Extension Clinic,12/07/2021,"270 Pulaski Road, Suite D",,Greenlawn,New York,11740,3475510429.0,,,51,Suffolk,7,Metropolitan Area Regional Office - Long Island,Long Island Jewish Medical Center,1630.0,7003004H,Long Island Jewish Medical Center,270-05 76 Avenue,,New Hyde Park,New York,11040,"Northwell Healthcare, Inc.",2000 Marcus Ave.,,New Hyde Park,New York,11042.0,Not for Profit Corporation,,,
10443,South Shore University Hospital Pre-Surgical Testing Extension Clinic,HOSP-EC,Hospital Extension Clinic,08/17/2020,2048 Sunrise Highway,,Bay Shore,New York,11706,6319687466.0,,,51,Suffolk,7,Metropolitan Area Regional Office - Long Island,South Shore University Hospital,924.0,5154000H,South Shore University Hospital,301 East Main Street,,Bay Shore,New York,11706,"Northwell Quality and Medical Affairs, Inc.",2000 Marcus Ave.,,New Hyde Park,New York,11042.0,Not for Profit Corporation,40.739167,-73.226735,"(40.739167, -73.226735)"
6871,The Hamptons Center for Rehabilitation and Nursing,NH,Residential Health Care Facility - SNF,07/17/2006,64 County Road 39,,Southampton,New York,11968,6317021000.0,6317021491.0,,51,Suffolk,7,Metropolitan Area Regional Office - Long Island,,,5126303N,"North Sea Associates, LLC",64 County Road 39,,Southampton,New York,11968,,,,,New York,,LLC,40.896629,-72.40065,"(40.896629, -72.40065)"
13565,No One Left Out Services Inc.,LHCSA,Licensed Home Care Services Agency,10/26/2020,609 Route 109,Room 2b4,West Babylon,New York,11704,6313882302.0,6314915394.0,,51,Suffolk,7,Metropolitan Area Regional Office - Long Island,,,2565L001,No One Left Out Services Inc.,609 Route 109,Room 2b4,West Babylon,New York,11704,,,Room 2b4,,New York,,Business Corporation,40.713714,-73.376778,"(40.713714, -73.376778)"
10115,Crossways Park Dialysis,DTC-EC,Diagnostic and Treatment Center Extension Clinic,01/19/2018,"113 Crossways Park Drive, Suite 100",,Woodbury,New York,11797,,,,29,Nassau,7,Metropolitan Area Regional Office - Long Island,Port Washington Dialysis Center,9926.0,2951206R,"True North Dialysis Center, LLC",1 Cisney Avenue,,Floral Park,New York,11001,,,,,New York,,LLC,40.809142,-73.48579,"(40.809142, -73.48579)"
12540,"Accredited Home Care Services, Inc.",LHCSA,Licensed Home Care Services Agency,03/22/1989,50 Clinton Street,Suite 203,Hempstead,New York,11550,5167313196.0,5167316356.0,,29,Nassau,7,Metropolitan Area Regional Office - Long Island,,,0417L001,"Accredited Home Care Services, Inc.",3000 Hempstead Tpke.,Suite 205,Levittown,New York,11756-1381,,,Suite 205,,New York,,Not for Profit Corporation,40.708214,-73.618389,"(40.708214, -73.618389)"
12716,"Ropen Health Care Services, Inc.",LHCSA,Licensed Home Care Services Agency,05/06/2003,652 Suffolk Ave,,Brentwood,New York,11717-4391,6314353682.0,6314353683.0,www.ropenhealth.com,51,Suffolk,7,Metropolitan Area Regional Office - Long Island,,,1022L001,"Ropen Health Care Services, Inc.",652 Suffolk Avenue,,Brentwood,New York,11717-4391,,,,,New York,,Business Corporation,40.780065,-73.250889,"(40.780065, -73.250889)"
6429,Comprehensive Cancer Center,HOSP-EC,Hospital Extension Clinic,08/01/2002,One South Central Avenue,,Valley Stream,New York,11581,5166323300.0,,,29,Nassau,7,Metropolitan Area Regional Office - Long Island,Mount Sinai South Nassau,527.0,2950001H,South Nassau Communities Hospital Inc,2445 Oceanside Road,,Oceanside,New York,11572,"Mount Sinai Hospitals Group, Inc.",One Gustave L. Levy Place,,New York,New York,10029.0,Not for Profit Corporation,40.667122,-73.708015,"(40.667122, -73.708015)"
880,Sun River Health Maxine S. Postal,DTC-EC,Diagnostic and Treatment Center Extension Clinic,06/22/1982,1080 Sunrise Highway,,Amityville,New York,11701,5168541001.0,,,51,Suffolk,7,Metropolitan Area Regional Office - Long Island,Sun River Health,1040.0,5901200R,"Sun River Health Care, Inc.",1037 Main Street,,Peekskill,New York,10566,,,,,New York,,Not for Profit Corporation,40.689098,-73.410042,"(40.689098, -73.410042)"
9722,"Sun River Health Martin Luther King, Jr.",DTC-EC,Diagnostic and Treatment Center Extension Clinic,09/12/2014,1556 Straight Path,,Wyandanch,New York,11798,,,,51,Suffolk,7,Metropolitan Area Regional Office - Long Island,Sun River Health,1040.0,5901200R,"Sun River Health Care, Inc.",1037 Main Street,,Peekskill,New York,10566,,,,,New York,,Not for Profit Corporation,40.752857,-73.361282,"(40.752857, -73.361282)"
7786,Huntington Hills Center for Health and Rehabilitation,NH,Residential Health Care Facility - SNF,08/11/1999,400 South Service Road,,Melville,New York,11747,6314393000.0,6314393001.0,,51,Suffolk,7,Metropolitan Area Regional Office - Long Island,,,5153309N,East Northport Residential Health Care Facility Inc,400 South Service Road,,Melville,New York,11747,,,,,New York,,Business Corporation,40.781818,-73.405128,"(40.781818, -73.405128)"
7823,Park Avenue Extended Care Facility,NH,Residential Health Care Facility - SNF,10/08/1999,425 National Boulevard,,Long Beach,New York,11561,5164312600.0,,,29,Nassau,7,Metropolitan Area Regional Office - Long Island,,,2902306N,"Park Avenue Operating Co., LLC",425 National Blvd,,Long Beach,New York,11561,,,,,New York,,LLC,40.590034,-73.667076,"(40.590034, -73.667076)"
913,Huntington Hospital,HOSP,Hospital,01/01/1901,270 Park Avenue,,Huntington,New York,11743,6313512200.0,,,51,Suffolk,7,Metropolitan Area Regional Office - Long Island,,,5153000H,Huntington Hospital Association,270 Park Avenue,,Huntington,New York,11743,"Northwell Healthcare, Inc.",2000 Marcus Ave.,,New Hyde Park,New York,11042.0,Not for Profit Corporation,40.879513,-73.417442,"(40.879513, -73.417442)"
15078,The Bristal at Lake Grove,EHP,Enriched Housing Program,02/13/2015,2995 Middle Country Road,,Lake Grove,New York,11755,6316767580.0,6316767581.0,,51,Suffolk,7,Metropolitan Area Regional Office - Long Island,,,700-S-311,Lake Grove Senior Care LLC,67 Clinton Road,,Garden City,New York,11530,,,,,New York,,LLC,40.862206,-73.131527,"(40.862206, -73.131527)"
490,Glen Cove Hospital,HOSP,Hospital,01/01/1901,101 St Andrews Lane,,Glen Cove,New York,11542,5166747588.0,,,29,Nassau,7,Metropolitan Area Regional Office - Long Island,,,2901000H,Glen Cove Hospital,St Andrews Lane,,Glen Cove,New York,11542,"Northwell Healthcare, Inc.",2000 Marcus Ave.,,New Hyde Park,New York,11042.0,Not for Profit Corporation,40.871731,-73.62159,"(40.871731, -73.62159)"
6334,Maria Regina Residence Inc,NH,Residential Health Care Facility - SNF,12/21/2001,1725 Brentwood Rd - Bldg 1,,Brentwood,New York,11717,6312734500.0,,,51,Suffolk,7,Metropolitan Area Regional Office - Long Island,,,5154321N,Maria Regina Residence Inc,1725 Brentwood  Rd,,Brentwood,New York,11717,,,,,New York,,Not for Profit Corporation,40.772499,-73.246109,"(40.772499, -73.246109)"
15434,Ameristar Home Care Services,LHCSA,Licensed Home Care Services Agency,11/01/2022,"1601 Veterans Memorial Highway, Suite 560",,Islandia,New York,11749,,,,51,Suffolk,7,Metropolitan Area Regional Office - Long Island,,,2129L003,Ameristar Homecare Services LLC,116-16 Queens Boulevard,Suite 204,Forest Hills,New York,11375,,,Suite 204,,New York,,LLC,,,
15031,Babylon Beach House Home for Adults,AH,Adult Home,11/01/1979,23 Yacht Club Road,,Babylon,New York,11702,6316693323.0,6316692571.0,,51,Suffolk,7,Metropolitan Area Regional Office - Long Island,,,700-F-131,William A. Lockwood William R. Lockwood Scott W. Lockwood Paul M. Lockwood,23 Yacht Club Road,,Babylon,New York,11702-4511,,,,,New York,,Individual,40.684699,-73.316212,"(40.684699, -73.316212)"
14827,Atria Plainview,AH,Adult Home,08/28/2000,12 Washington Avenue,,Plainview,New York,11803,5169330002.0,5169330003.0,,29,Nassau,7,Metropolitan Area Regional Office - Long Island,,,400-F-329,"ATR New York LH, Inc.",500 N. Hurstbourne Parkway,Suite 200,Louisville,New York,40222,,,Suite 200,,New York,,Business Corporation,40.778887,-73.465931,"(40.778887, -73.465931)"
15501,SHOW Elmhurst Mobile Van Extension Clinic,,Mobile Hospital Extension Clinic,04/12/2023,360 Merrick Road,,Lynbrook,New York,11563,9177637904.0,,,29,Nassau,7,Metropolitan Area Regional Office - Long Island,Elmhurst Hospital Center,1626.0,7003000H,New York City Health and Hospital Corporation,125 Worth Street,,New York,New York,10013,,,,,New York,,Municipality,,,
9693,Advanced Surgery Center of Long Island,DTC,Diagnostic and Treatment Center,06/05/2014,"1500 Route 112, Building 5",,Port Jefferson Station,New York,11776,,,,51,Suffolk,7,Metropolitan Area Regional Office - Long Island,,,5151208R,"Long Island Digestive Endoscopy Center, LLC","1500 Route 112, Building 5",,Port Jefferson,New York,11776,,,,,New York,,LLC,40.912853,-73.030746,"(40.912853, -73.030746)"
15066,Brightview Sayville,AH,Adult Home,02/04/2020,445 Broadway Avenue,,Sayville,New York,11782,6315460302.0,6313199770.0,www.brightviewseniorliving.com#http://www.brightviewseniorliving.com#,51,Suffolk,7,Metropolitan Area Regional Office - Long Island,,,700-F-947,"BV Sayville Operator, LLC","218 North Charles Street, Suite 220",,"Baltimore, MD",New York,21201,,,,,New York,,LLC,,,
10192,Sun River Health Huntington,DTC-EC,Diagnostic and Treatment Center Extension Clinic,07/25/2018,55 Horizon Drive,,Huntington,New York,11743,6317607746.0,,,51,Suffolk,7,Metropolitan Area Regional Office - Long Island,Sun River Health,1040.0,5901200R,"Sun River Health Care, Inc.",1037 Main Street,,Peekskill,New York,10566,,,,,New York,,Not for Profit Corporation,40.8581,-73.422713,"(40.8581, -73.422713)"
14822,Sunrise of Plainview,AH,Adult Home,12/31/2010,1231 Old Country Road,,Plainview,New York,11803,5169325151.0,5169321759.0,,29,Nassau,7,Metropolitan Area Regional Office - Long Island,,,400-F-323,"GWC - Plainview, Inc.",1231  Old County Road,,Plainview,New York,11803,,,,,New York,,Business Corporation,40.77607,-73.460162,"(40.77607, -73.460162)"
12545,People Care Incorporated,LHCSA,Licensed Home Care Services Agency,05/11/1993,4 N Jerusalem Ave,,Hicksville,New York,11801-2908,5164332600.0,5164333209.0,www.peoplecare.com,29,Nassau,7,Metropolitan Area Regional Office - Long Island,,,0505L002,People Care Incorporated,1649 61St Street,,Brooklyn,New York,11204,,,,,New York,,Business Corporation,40.768051,-73.525843,"(40.768051, -73.525843)"
