County,Market Name,Market Location,Address Line 1,City,State,Zip,Contact,Phone,Market Link,Operation Hours,Operation Season,Operating Months,FMNP,SNAP,FCC Issued,FCC Accepted,Latitude,Longitude,Georeference_1
Albany,Altamont Orchards Farm Stand,6654 Dunnsville Rd Altamont,6654 Dunnsville Road,Altamont,NY,12009,Jim Abbruzzese,5188616515,http://www.altamontorchards.com,"Mon-Fri 10am-5pm, Sat/Sun 9:30am-4pm",May 1-December 23,P/M/X,Y,N,N,Y,42.72256,-74.01493,POINT (-74.01493 42.72256)
Albany,Delaware Community Farmers' Market,"Delaware Branch Library, 331 Delaware Ave Albany",331 Delaware Ave,Albany,NY,12209,Louise McNeilly,5184320516,,"Tue 4pm-7pm , Oct-Nov 3pm-6pm",June 18-November 5,M,Y,Y,N,Y,42.64305,-73.77824,POINT (-73.77824 42.64305)
Albany,Empire State Plaza Wed Farmers' Market,"Empire State Plaza, (Winter inside South Concourse)",170 State St,Albany,NY,12210,Nicholas DeBlois,5184744759,https://empirestateplaza.ny.gov/empire-state-plaza-farmers-market,Wed 10am-2pm,Year-round,YR,Y,Y,Y,Y,42.65068,-73.758,POINT (-73.758 42.65068)
Albany,The Gade Farm Farm Stand,2479 Western Ave Altamont,2479 Western Avenue,Altamont,NY,12009,Amy Castillo,5188698019,http://www.gadefarm.com,"Mon-Sat 9am-6pm, Sun 9am-4pm",Year-round,YR,Y,N,N,Y,42.71055,-73.92593,POINT (-73.92593 42.71055)
Albany,Town of Colonie Farmers' Market at the Crossings,580 Albany Shaker Rd Loudonville,580 Albany Shaker Rd,Colonie,NY,12211,Tara Booker,5187832760,http://www.colonie.org,Sat 9am-1pm,May 11-September 21,P/M,Y,N,N,Y,42.71016,-73.78029,POINT (-73.78029 42.71016)
Albany,Veggie Mobile Sprout-St. Sophia Church,440 Whitehall Rd. Albany,440 Whitehall Road,Albany,NY,12208,Lucy LaFave,5182748685,http://www.capitalroots.org,Wed 12:15pm-1pm,Year-round,YR,Y,Y,N,Y,42.65197,-73.81477,POINT (-73.81477 42.65197)
Albany,Veggie Mobile-Cohoes Senior Ctr,10 Cayuga Plaza Cohoes,10 Cayuga Plaza,Cohoes,NY,12047,Lucy LaFave,5182748685,http://www.capitalroots.org,Wed 2:30pm-3:30pm,Year-round,YR,Y,Y,N,Y,42.77603,-73.70103,POINT (-73.70103 42.77603)
Albany,Veggie Mobile-South Mall Towers,101 S Pearl St Albany,101 South Pearl Street,Albany,NY,12207,Lucy LaFave,5182748685,http://www.capitalroots.org,Fri 10:45am-12pm,Year-round,YR,Y,Y,N,Y,42.6465,-73.75482,POINT (-73.75482 42.6465)
Albany,Veggie Mobile-Thurlow Terrace,2 Thurlow Terrace Albany,2 Thurlow Terrace,Albany,NY,12203,Lucy LaFave,5182748685,http://www.capitalroots.org,Wed 12pm-1pm,Year-round,YR,Y,Y,N,Y,42.65998,-73.77276,POINT (-73.77276 42.65998)
Albany,Voorheesville Farmers' Market,"First United Methodist Church lot, 68 Maple Ave",68 Maple Ave,Voorheesville,NY,12186,Dianne Luci,5187654536,,Wed 3:30pm-6:30pm,June 19-October 2,M,Y,N,N,Y,42.64892,-73.92991,POINT (-73.92991 42.64892)
Allegany,Alfred Farmers' Market,3 South Main St,3 South Main Street,Alfred,NY,14802,Kim Hannigan,5708076374,http://www.alfredfarmersmarket.com,Sun 11am-3pm,June 9-October 13,M,Y,Y,Y,Y,42.25359,-77.79036,POINT (-77.79036 42.25359)
Allegany,Belmont Farmers' Market,5429 State Route 19N,5429 NYS Route 19 N,Belmont,NY,14813,Debra Wagoner,5856108836,,Thu 11am-4pm,June 6-October 10,M,Y,Y,N,Y,42.2356,-78.05212,POINT (-78.05212 42.2356)
Allegany,Wagoner Bees & Produce Farm Stand,11137 Wayne Rd Fillmore,11137 Wayne Rd.,Fillmore,NY,14735,Terry Wagoner,5856108837,,"Sun-Fri 1pm-5pm (closed Thu), Sat 10am-5pm",May 1-November 15,P/M,Y,Y,N,Y,42.48057,-78.09042,POINT (-78.09042 42.48057)
Bronx,170 Farm Stand,1406 Townsend Ave and 170th st,1411 Townsend Ave,Bronx,NY,10452,Regina Harrell,7187585901,http://www.newsettlement.org/170FarmStand,Wed 2pm-6pm,July 10-November 27,M,Y,Y,N,Y,40.84009,-73.9166,POINT (-73.9166 40.84009)
Bronx,Bissel Gardens Farmers' Market-Sat,Baychester Ave below the E 241 St intersection,Baychester Ave and East 241st St,Bronx,NY,10470,Heather Dombrowa,3474272547,http://www.bisselgardens.org,Sat 10am-4pm,July 6-November 23,M,Y,Y,N,Y,40.90151,-73.84702,POINT (-73.84702 40.90151)
Bronx,Bronx Borough Hall Greenmarket,161st & Grand Concourse,900 Concourse Plaza,Bronx,NY,10451,Iliana Garcia,2127887900,http://www.grownyc.org/greenmarket,Tue 8am-4pm,June 4-November 26,M,Y,Y,N,Y,40.82554,-73.91838,POINT (-73.91838 40.82554)
Bronx,Bronx Park East Farmers' Market,2045 Bronx Park E,2222 Bronx Park E,Bronx,NY,12748,Judith Desire,3473917189,http://bxpemarket.com,Sun 9am-4pm,June 2-November 24,M,Y,Y,N,Y,40.8521,-73.86869,POINT (-73.86869 40.8521)
Bronx,Children's Aid-Whitney Young Jr Campus,1919 Prospect Ave Bronx,1919 Prospect Avenue,Bronx,NY,10457,Giovanna Bernal,6466304515,http://childrensaidnyc.org,Thu 1:30pm-4pm,July 11-November 7,M,Y,Y,N,Y,40.8437,-73.88992,POINT (-73.88992 40.8437)
Bronx,Eastchester GrowNYC Farm Stand,"1250 E 229th St. , Northeast Bronx YMCA",E 229th St at Schieffelin Ave,Bronx,NY,10466,Meredith Clark,,http://www.grownyc.org,Wed 9:30am-2:30pm,July 3-November 27,M,Y,Y,N,Y,40.88504,-73.84314,POINT (-73.84314 40.88504)
Bronx,Fordham Farmers' Market,Fordham Plaza Bronx,Fordham Plaza,Bronx,NY,10458,Gail Schorsch,6467172988,,Fri 10am-3pm,June 7-October 25,M,Y,N,N,Y,40.85846,-73.88503,POINT (-73.88503 40.85846)
Bronx,Harvest Home Co-op City Farmers' Market,Asch Loop & Aldrich St.,199 Aldrich St.,Bronx,NY,10475,Perla Vazquez,2128283361,http://www.harvesthomefm.org,Wed/Sat 8am-3pm,June 12-November 20,M,Y,Y,N,Y,40.87025,-73.83097,POINT (-73.83097 40.87025)
Bronx,Harvest Home Hunts Point Farmers' Market,"Southern Blvd, Btwn Barretto & Tiffany Sts",Southern Boulevard between Barretto Street and Tiffany Street,Bronx,NY,10474,Perla Vazquez,2128283361,http://www.harvesthomefm.org,Wed 8am-3pm,June 12-November 20,M,Y,Y,N,Y,40.81323,-73.88711,POINT (-73.88711 40.81323)
Bronx,Harvest Home Jacobi Hospital Fri Farmers' Market,1400 Pelham Parkway,1400 Pelham Parkway,Bronx,NY,10461,Perla Vazquez,2128283361,http://www.harvesthomefm.org,Fri 8am-3pm,June 21-November 15,M,Y,Y,N,Y,40.85738,-73.84631,POINT (-73.84631 40.85738)
Bronx,Harvest Home Mt. Eden Farmers' Market,"Claremont Park Mt. Eden Pkway , and Mount Morris Ave",Mt Eden Pkwy and Morris Ave,Bronx,NY,10457,Perla Vazquez,2128283361,http://www.harvesthomefm.org,Tue/Thu 8am-3pm,June 4-November 19,M,Y,Y,N,Y,40.84305,-73.90947,POINT (-73.90947 40.84305)
Bronx,Harvest Home N Central Bronx Farmers' Market,E. Mosholu Parkway N & Jerome Ave.,Jerome Ave and East Mosholu Pkwy North,Bronx,NY,10467,Perla Vazquez,2128283361,http://www.harvesthomefm.org,Wed 8am-3pm,June 12-November 20,M,Y,Y,N,Y,40.88046,-73.88385,POINT (-73.88385 40.88046)
Bronx,Harvest Home St. Marys Park Market,E 149th St & Eagle Ave,646 E 149th St,Bronx,NY,10455,Perla Vazquez,2128283361,http://www.harvesthomefm.org,Thu 8am-3pm,July 11-November 14,M,Y,Y,N,Y,40.81099,-73.91173,POINT (-73.91173 40.81099)
Bronx,James Baldwin OLC Farmers' Market,100 W Mosholu Parkway S,100 West Mosholu Parkway South,Bronx,NY,10463,Ray Pultinas,9177553559,http://www.jamesbaldwinoutdoorlearningcenter.org,Sat 10am-3pm,June 15-October 26,M,Y,Y,N,Y,40.88146,-73.88693,POINT (-73.88693 40.88146)
Bronx,La Familia Verde Farmers' Market,Walter Gladwin Park Bronx,East Tremont Ave and Arthur Ave,Bronx,NY,10457,Aleyna Rodriguez,7185831756,http://www.lafamiliaverde.org,Tue 9am-3pm,July 9-November 12,M,Y,Y,N,Y,40.84643,-73.89334,POINT (-73.89334 40.84643)
Bronx,La Familia Verde Highbridge Farmers' Market,1430 Plimpton Ave Bronx,1430 Plimpon Ave,Bronx,NY,10452,Aleyna Rodriguez,7185831756,http://lafamiliaverde.com,Wed 10am-3pm,July 10-November 13,M,Y,Y,N,Y,40.8433,-73.92213,POINT (-73.92213 40.8433)
Bronx,Lincoln Hospital Fri Greenmarket,E 149th St btwn Park & Morris Ave,234 East 149th Street,Bronx,NY,10451,Iliana Garcia,2127887900,http://www.grownyc.org/greenmarket,Fri 8am-3pm,June 21-November 22,M,Y,Y,N,Y,40.8174,-73.92276,POINT (-73.92276 40.8174)
Bronx,Lincoln Hospital Tue Greenmarket,E 149th St btwn Park & Morris Ave,234 East 149th Street,Bronx,NY,10451,Iliana Garcia,2127887900,http://www.grownyc.org/greenmarket,Tue 8am-3pm,June 25-November 26,M,Y,Y,N,Y,40.81754,-73.9241,POINT (-73.9241 40.81754)
Bronx,Morris Heights GrowNYC Farm Stand,85 W Burnside Ave Bronx,85 W Burnside Ave,Bronx,NY,10453,Meredith Clark,,http://grownyc.org/farmstands,Wed 9:30am-2:30pm,July 3-November 27,M,Y,Y,N,Y,40.8547,-73.91035,POINT (-73.91035 40.8547)
Bronx,Morrisania GrowNYC Farm Stand,169th St & Boston Rd at McKinley Square,E. 169th St. and Boston Rd.,Bronx,NY,10456,Meredith Clark,,https://www.grownyc.org/farmstands,Wed 10am-2pm,July 3-November 27,M,Y,Y,N,Y,40.83121,-73.90022,POINT (-73.90022 40.83121)
Bronx,New Roots Community Farm Stand,670 Grand Concourse,670 Grand Concourse,Bronx,NY,10451,Sheryll Durrant,6465328981,,Sat 10am-3pm,July 6-October 26,M,Y,Y,N,Y,40.82172,-73.92524,POINT (-73.92524 40.82172)
Bronx,New York Botanical Garden Farmers' Market,2950 Southern Boulevard Mosholu Gate,2950 Southern Boulevard,Bronx,NY,10458-5126,Pascale Le Draoulec,9148063380,,Wed 10am-3pm,May 22-October 23,M,Y,Y,N,Y,40.86689,-73.88061,POINT (-73.88061 40.86689)
Bronx,Norwood GrowNYC Farm Stand,E Gun Hill Rd & Dekalb Ave,Dekalb Ave. and East Gun Hill Rd.,Bronx,NY,10467,Meredith Clark,,https://www.grownyc.org/farmstands,Thu 9:30am-2:30pm,Year-round,YR,Y,Y,N,Y,40.88223,-73.88048,POINT (-73.88048 40.88223)
Bronx,Parkchester Greenmarket,Westchester Ave & White Plains Rd,1878 Cross Bronx Service Road South,Bronx,NY,10472,Iliana Garcia,2127887900,http://www.grownyc.org/greenmarket,Fri 8am-3pm,June 28-November 22,M,Y,Y,N,Y,40.82975,-73.87377,POINT (-73.87377 40.82975)
Bronx,Poe Park Greenmarket,E 192nd St                                               btwn Grand Concourse & Valentine,2580 Grand Concourse,Bronx,NY,10458,Iliana Garcia,2127887900,http://www.grownyc.org,Tue 8am-3pm,June 25-November 26,M,Y,Y,N,Y,40.86412,-73.8955,POINT (-73.8955 40.86412)
Bronx,Van Cortlandt Park Alliance Farm Stand,Corner of Gale Place and Orloff Ave,98 Van Cortlandt Park South,Bronx,NY,10563,Sara Kempton,7186011553,,Wed 2pm-7pm,July 10-October 23,M,Y,Y,N,Y,40.88485,-73.89124,POINT (-73.89124 40.88485)
Broome,Broome Co Regional Sat Farmers' Market,840 Upper Front St Binghamton,840 Upper Front St.,Binghamton,NY,13905,Amanda Poodiack,6077728953,http://www.broomecountyregionalmarket.com,Sat 9am-1pm,Year-round,YR,N,Y,N,Y,42.12921,-75.90609,POINT (-75.90609 42.12921)
Broome,Vestal Farmers' Market,"Library parking lot, near museum, 320 Vestal Pkwy East (Rt. 434)",320 Vestal Pkwy East,Vestal,NY,13850,MaKenzie Darrow,6072065742,,Wed/Sat 9am-1pm,May 25-November 27,P/M,Y,N,N,Y,42.08731,-76.04563,POINT (-76.04563 42.08731)
Cattaraugus,Canticle Farm Market,3809 Old State Rd Allegany,3809 Old State Road,Allegany,NY,14706,Gina Anderson,7163730200,http://www.canticlefarm.org,"Tue/Fri 12pm-6pm, Dec-June: Tue only",Year-round,YR,N,Y,N,Y,42.09601,-78.50618,POINT (-78.50618 42.09601)
Cattaraugus,Enchanted Mountains Farmers' Market,1900 Constitution Ave Olean,1900 Constituion Ave,Olean,NY,14760,Tammy Gardner,7165435475,,Fri 2pm-6pm,May 24-October 25,P/M,Y,Y,Y,Y,42.08304,-78.45343,POINT (-78.45343 42.08304)
Cattaraugus,Little Valley Farmers' Market,103 Rock City St,103 Rock City Street,Little Valley,NY,14475,Tina Armstrong,7162006946,,Thu 2pm-6pm,June 6-September 26,M,Y,Y,N,Y,42.2489,-78.7989,POINT (-78.7989 42.2489)
Cattaraugus,Miller's Farm Market,1685 Olean Portville Rd Olean,1685 Olean Portville Rd.,Olean,NY,14760,Shanna Miller,7163722521,,"Mon-Sat 9am-6pm, Sun 9am-5pm",April 15-December 24,P/M/X,Y,Y,N,Y,42.071439,-78.39814,POINT (-78.39814 42.071439)
Cattaraugus,Olean Area Farmers' Market,"Lincoln Park Pavilion, 100 E State St Olean",100 E. State Street,Olean,NY,14760,Stephanie Beneg,7163745257,http://www.oleanfarmersmarket.com,Sat 8am-1pm,May 4-October 26,P/M,Y,Y,Y,Y,42.07726,-78.42821,POINT (-78.42821 42.07726)
Cattaraugus,South Dayton Farmers' Market,108 W Railroad St,108 West Railroad Street,South Dayton,NY,14138,Tina Armstrong,7162006946,,Sat 9am-1pm,May 4-October 26,P/M,Y,Y,N,Y,42.36074,-79.04918,POINT (-79.04918 42.36074)
Cayuga,Auburn Sat Co-op Farmers' Market,96 State St Curley's Restaurant Pkg Lot,96 State Street,Auburn,NY,13021,Mark Soper,3157048609,http://www.auburnfarmerscoopmarketinc.com,Sat 7am-2pm,June 8-October 26,M,Y,Y,Y,Y,42.93406,-76.56985,POINT (-76.56985 42.93406)
Cayuga,Auburn Thu Co-op Farmers' Market,96 State St Curley's Restaurant Pkg Lot,96 State Street,Auburn,NY,13021,Mark Soper,3157048609,http://www.auburnfarmerscoopmarketinc.com,Thu 7am-2pm,June 6-October 31,M,Y,Y,Y,Y,42.93401,-76.57007,POINT (-76.57007 42.93401)
Cayuga,Auburn Tue Co-op Farmers' Market,96 State St Curley's Restaurant Pkg Lot,96 State Street,Auburn,NY,13021,Mark Soper,3157048609,http://www.auburnfarmerscoopmarketinc.com,Tue 7am-2pm,June 4-October 29,M,Y,Y,Y,Y,42.93401,-76.57007,POINT (-76.57007 42.93401)
Cayuga,Centurion Farm Stand,287 Creek Rd Locke,287 Creek Road,Locke,NY,13092,Jeff Saeli,6075925810,,M/T/Thu-Sat 9am-7pm,May 1-November 30,P/M,Y,N,N,Y,42.6309,-76.45455,POINT (-76.45455 42.6309)
Cayuga,Horning's Produce Farm Stand,2213 State Rt 370 Cato,2213 State Rt 270,Cato,NY,13033,Tim Horning,3156513320,,Mon-Sat 9am-6pm,Year-round,YR,Y,Y,N,Y,43.16733,-76.59499,POINT (-76.59499 43.16733)
Cayuga,Morgan's Half Acre Produce Farm Stand,6169 Half Acre Rd Auburn,6169 Half Acre Road,Auburn,NY,13021,Kelli Morgan,3152533008,http://www.morganshalfacreproduce.com,"Mon-Sat 10am-6pm, Sun 10am-4pm",May 10-October 31,P/M,Y,Y,N,Y,42.91629,-76.62457,POINT (-76.62457 42.91629)
Cayuga,Owen Orchards Farm Stand,8174 Grant Ave Weedsport,8174 Grant Ave.,Weedsport,NY,13166,Gordon Tripp,3152524097,http://www.owenorchard.com,"Mon-Fri 9am-7pm , Sat-Sun 9am-5pm","Aug 1-March 31, 2023",M/X/W,Y,Y,N,Y,43.01314,-76.50749,POINT (-76.50749 43.01314)
Chautauqua,Fredonia Farmers' Market,"Village Hall Barker Commons , 9 Church St",9 Church St,Fredonia,NY,14063,Anneliese Bruegel,7166802104,,Sat 9am-1pm,May 20-October 28,P/M,N,Y,Y,Y,42.44089,-79.33242,POINT (-79.33242 42.44089)
Chautauqua,Jamestown Mobile Market-Bush Elementary,150 Pardee Ave,150 Pardee Avenue,Jamestown,NY,14701,Nick Weith,7164836405,,Thu 2:30pm-3:30pm,June 13-October 24,M,Y,Y,N,Y,42.09223,-79.21656,POINT (-79.21656 42.09223)
Chautauqua,Jamestown Mobile Market-Chautaqua Center,107 Institute St.,107 Institute Street,Jamestown,NY,14701,Nick Weith,7164836405,http://jtownpublicmarket.org,Wed 1pm-2pm,June 12-September 26,M,Y,Y,N,Y,42.09308,-79.23505,POINT (-79.23505 42.09308)
Chautauqua,Jamestown Mobile Market-Code Building,411 Windsor St,411 Windsor Street,Jamestown,NY,14701,Nick Weith,7164836405,,Thu 4pm-5pm,June 13-October 24,M,Y,Y,N,Y,42.10095,-79.23136,POINT (-79.23136 42.10095)
Chautauqua,Jamestown Mobile Market-Prendergast Library,509 Cherry St.,509 Cherry Street,Jamestown,NY,14701,Nick Weith,7164836405,http://jtownpublicmarket.org,Wed 11:30am-12:30pm,June 12-September 26,M,Y,Y,N,Y,42.09831,-79.24361,POINT (-79.24361 42.09831)
Chautauqua,Jamestown Mobile Market-Silver Tree Seniors,8 Crane St.,9 Crane Street,Jamestown,NY,14701,Nick Weith,7164836405,http://jtownpublicmarket.org,Thu 1pm-2pm,June 12-September 26,M,Y,Y,N,Y,42.09627,-79.23317,POINT (-79.23317 42.09627)
Chautauqua,Jamestown Mobile Market-The Resource Center,880 E 2nd St,880 East 2nd Street,Jamestown,NY,14701,Nick Weith,7164836405,,Wed 10am-11am,June 12-October 23,M,Y,Y,N,Y,42.10486,-79.22483,POINT (-79.22483 42.10486)
Chautauqua,Jamestown Public Market,23 W 3rd St.,23 W. 3rd Street,Jamestown,NY,14701,Nick Weith,7164836405,,Sat 10am-2pm,June 8-October 26,M,Y,Y,N,Y,42.09603,-79.24226,POINT (-79.24226 42.09603)
Chautauqua,Lakewood Farmers' Market,67 Chautauqua Ave,67 Chautauqua Ave,Lakewood,NY,14750,Krysten Sisson,7167638557,,Thu 10am-2pm,June 20-September 5,M,Y,N,N,Y,42.10376,-79.32594,POINT (-79.32594 42.10376)
Chemung,Grove Park Farmers' Market,4th St & Walnut Ave Elmira,Walnut Ave and West 4th St,Elmira,NY,14901,Matthew Glenn,6075464535,,Mon 3pm-6pm,June 3-October 28,M,Y,N,N,Y,42.0921,-76.82013,POINT (-76.82013 42.0921)
Chemung,Wisner Park Farmers' Market,200 N. Main St Elmira,200 N. Main Street,Elmira,NY,14901,Kylene Kiah,6073335378,http://www.wisnermarket.org,Thu 10am-2pm,June 6-September 26,M,Y,Y,N,Y,42.08952,-76.8076,POINT (-76.8076 42.08952)
Chenango,Lamb's Quarters Norwich Farm Stand,213 Pierce Rd. Plymouth,213 Pierce Rd,Plymouth,NY,13832,Sandy Pierce,6073344928,http://www.lambsquartersorganicfarm.com,"Sun-Tues  12pm-6pm, Thu/Fri  12pm-6pm",Year-round,YR,N,N,N,Y,42.60059,-75.59991,POINT (-75.59991 42.60059)
Chenango,Lamb's Quarters Organic Farm Stand,213 Pierce Rd Plymouth,213 Pierce Road,Plymouth,NY,13832,Sandy Pierce,6073344928,http://www.lambsquarterorganicfarm.com,"Daily 12pm-6pm, Closed Wed & Sat",Year-round,YR,Y,Y,N,Y,42.60058,-75.59991,POINT (-75.59991 42.60058)
Chenango,Pires Farm Stand,6066 State Hwy 12 Norwich,6066 State Highway 12,Norwich,NY,13815,Richard Williams,6073342676,,"Mon-Sat 9am-4pm, Sun 10am-2pm",May 1-November 30,P/M,Y,Y,N,Y,42.54525,-75.52498,POINT (-75.52498 42.54525)
Clinton,Champlain Farmers' Market,Paquette Park Gazebo Main St (Rte 9),1154 US-9,Champlain,NY,12919,Janet McFetridge,5182984152,http://www.vchamplain.com,Sat 9am-12pm,July 6-September 28,M,Y,Y,N,Y,44.98632,-73.44613,POINT (-73.44613 44.98632)
Clinton,Plattsburgh Farmers' and Craft Sat Market,26 Green Street,26 Green Street,Plattsburgh,NY,12901,Sue Carusone,5185786749,http://plattsburghfarmerscraftersmarket.com,Sat 9am-2pm,May 11-October 12,P/M,Y,N,N,Y,44.69902,-73.4469,POINT (-73.4469 44.69902)
Clinton,Rouses Point Farmers' Market,Dodge Memorial Library 144 Lake St,144 Lake Street,Rouses Point,NY,12979,Jim Rabideau,5182983878,,Fri 3pm-6pm,June 14-September 14,M,Y,N,N,Y,44.99038,-73.36434,POINT (-73.36434 44.99038)
Clinton,Rulfs Orchard Farm Stand,531 Bear Swamp Rd Peru,531 Bear Swamp Road,Peru,NY,12972,Shannon Wilkins,5186438636,http://www.rulfsorchard.com,Daily 6am-6pm,Year-round,YR,Y,N,N,Y,44.5786,-73.49804,POINT (-73.49804 44.5786)
Clinton,Shield's Vegetables Farm Stand,6303 State Route 22 Plattsburgh,6303 State Route 22,Plattsburgh,NY,12901,Sam Dyer,5185610473,,Daily 10am-6pm,July 1-October 31,M,Y,Y,N,Y,44.73789,-73.47064,POINT (-73.47064 44.73789)
Columbia,Copake Hillsdale Farmers' Market,Roeliff Jansen Park 9140 Route 23,9140 Route 23,Hillsdale,NY,12529,Diane Creed,5183251430,http://www.copakehillsdalefarmersmarket.com,Sat 9am-1pm,May 18-November 23,P/M,Y,Y,Y,Y,42.17077,-73.51771,POINT (-73.51771 42.17077)
Columbia,Germantown Farmers' Market,50 Palatine Park Rd,50 Palatine Park Road,Germantown,NY,12526,Lauren Williams,5185675691,,Sat 10am-1pm,May 25-October 12,P/M,Y,N,N,Y,42.135,-73.88551,POINT (-73.88551 42.135)
Columbia,Hudson Farmers' Market,DMV parking lot Sixth & Columbia Sts,Columbia St and North 6th St,Hudson,NY,12534,Brandon Bjerke,5183003496,http://www.hudsonfarmersmarketny.com,Sat 9am-1pm,April 20-November 23,P/M/X,Y,Y,Y,Y,42.24866,-73.78369,POINT (-73.78369 42.24866)
Columbia,Hudson Farmers Market (Winter),"Elks Lodge #787, 201 Harry Howard Ave",201 Harry Howard Ave,Hudson,NY,12534,Brandon Bjerke,5183003496,http://www.hudsonfarmersmarketny.com,10am-1pm,"December 7, 2023-April 12, 2024",X/W/P,N,Y,N,Y,42.25828,-73.77341,POINT (-73.77341 42.25828)
Columbia,Kinderhook Farmers' Market,Kinderhook Village Square 1 Hudson St,US Route 9 and Hudson St,Kinderhook,NY,12106,Kim Voltz,5187559293,http://www.kinderhookfarmersmarket.com,Sat 8:30am-12:30pm,May 4-October 12,P/M,Y,N,N,Y,42.3954,-73.69817,POINT (-73.69817 42.3954)
Cortland,Cincinnatus Farmers' Market,"Cortland-Chenango Rural Services, 2704 Lower Cincinnatus Rd",2704 Lower Cincinnatus Rd,Cincinnatus,NY,13040,Paul Halstead,6078368972,,Sat 9am-12pm,May 25-October 5,P/M,Y,N,N,Y,42.53812,-75.89662,POINT (-75.89662 42.53812)
Cortland,Cortland Saturday Farmers' Market,"13 Court St, In front of Grace & Holy Spirit Church",Main St and Orchard St,Cortland,NY,13045,Claribel Ferrer,6077588331,,Sat 8am-2pm,July 6-November 9,M,Y,Y,N,Y,42.60028,-76.18044,POINT (-76.18044 42.60028)
Cortland,Cortland Tuesday Farmers' Market,"13 Court St  , In front of Grace & Holy Spirit Church",Main St and Orchard St,Cortland,NY,13045,Claribel Ferrer,6077588331,,Tue 8am-2pm,July 2-November 12,M,Y,Y,N,Y,42.60028,-76.18044,POINT (-76.18044 42.60028)
Cortland,Dave's Veggies Farm Stand,5178 NYS Route 41 Homer,5178 NY-41,Homer,NY,13077,David Root,6077494955,,Daily 12pm-6pm,May-October,P/M,Y,Y,N,Y,42.659118,-76.203042,POINT (-76.203042 42.659118)
Cortland,Homer Regional Farmers' Market,72 S Main St,72 South Main Street,Homer,NY,13077,Karlyn Fendya,6074235087,,Sat 9:30am-12:30pm,May 25-October 26,M,Y,N,N,Y,42.63418,-76.17894,POINT (-76.17894 42.63418)
Cortland,Plunkett Farms Farm Stand,2180 Tower Rd Cortland,2180 Tower Road,Cortland,NY,13045,John and Carla Plunkett,6077530001,,Daily 9am-6pm,July 1-November 12,M,Y,N,N,Y,42.55495,-76.13123,POINT (-76.13123 42.55495)
Cortland,Valley View Farms Farm Stand,"44 James St Homer, at Old Homer House",44 James St,Homer,NY,13077,Joan Franklin,6077493424,,Thu 1pm-5pm,July 4-October 31,M,Y,N,N,Y,42.63646,-76.18335,POINT (-76.18335 42.63646)
Delaware,Catskill Cattle Farm Stand,96 Laurel Bank Ave Deposit,96 Laurel Bank Ave,Deposit,NY,13754,Lonny Schaefer,6074675762,http://www.catskillcattle.com,"Wed-Sat 11am-6pm, Sun 12pm-4pm",Year-round,YR,N,N,N,Y,42.06673,-75.40725,POINT (-75.40725 42.06673)
Delaware,Delhi Farmers' Market,Courthouse Square Main St,Main St and Court St,Delhi,NY,13753,Meg Kennedy,6074342407,,Wed 10am-2pm,May 1-October 30,P/M,Y,N,N,Y,42.27744,-74.91673,POINT (-74.91673 42.27744)
Delaware,Pakatakan Farmers' Market,"Round Barn of Halcottville, 46676 State Hwy 30",46676 State Highway 30,Halcottville,NY,12438,Tanya Moyer,5186734242,http://pakatanfarmersmarket.com,"Sat 9am-1pm, Oct/Nov 10am-1pm",May 18-November 30,P/M,Y,N,N,Y,42.20103,-74.59909,POINT (-74.59909 42.20103)
Dutchess,Arlington Farmers' Market,"Vassar College Alumni Lawn , 123 Raymond Ave Poughkeepsie",123 Raymond Ave,Poughkeepsie,NY,12603,Bob Legacy,9144747533,http://www.arlingtonhasit.org,Thu 2pm-6pm,June 6-November 21,M,Y,N,N,Y,41.68187,-73.89636,POINT (-73.89636 41.68187)
Dutchess,Beacon Farmers' Market,223 Main St,Veteran's Place,Beacon,NY,12508,Amy Bandolik,9175754967,http://www.beaconfarmersmarket.org,Sun 10am-2pm,Year-round,YR,Y,Y,Y,Y,41.50402,-73.96823,POINT (-73.96823 41.50402)
Dutchess,Millerton Farmers' Market,"6 Dutchess Ave , Millerton Methodist Church",6 Dutchess Ave.,Millerton,NY,12546,Paul Bengston,5187894259,https://www.neccmillerton.org/farmers-market,Sat 10am-2pm,May 18-December 21,P/M/X,Y,Y,N,Y,41.9543,-73.50977,POINT (-73.50977 41.9543)
Dutchess,Obercreek Farm Stand,"81 New Hamburg Rd , Wappingers Falls",87 New Hamburg Road,Wappingers Falls,NY,12590,Nina Doig,8452189262,http://www.obercreekfarm.com,Wed-Sun 11am-5pm,Year-round,YR,N,N,N,Y,41.58378,-73.93705,POINT (-73.93705 41.58378)
Dutchess,Poughkeepsie Waterfront Farmers' Market,75 North Water St.,75 North Water St.,Poughkeepsie,NY,12601,Jeffery Sasson,8454710589,,Tue 2pm-5:30pm,May 7-October 29,M,Y,Y,Y,Y,41.70891,-73.93896,POINT (-73.93896 41.70891)
Dutchess,Rhinebeck Farmers' Market,Municipal lot 61 E Market St,61 East Market St,Rhinebeck,NY,12572,Andrea Bartolomeo,5188211481,http://www.rhinebeckfarmersmarket.com,Sun 10am-2pm,May 5-December 29,P/M/X,Y,Y,Y,Y,41.92704,-73.91027,POINT (-73.91027 41.92704)
Erie,5 Loaves Farm Stand-Delavan Ave,70 West Delavan Ave Buffalo,70 West Delevan Ave,Buffalo,NY,14213,Matt Kauffman,7168039241,http://5loavesfarm.org,Thu 4pm-7pm,July 1-September 30,M,Y,Y,N,Y,42.9223,-78.8969,POINT (-78.8969 42.9223)
Erie,Bowman Farms Farm stand,11259 Gowanda State Rd. North Collins,11259 Gowanda State Rd.,North Collins,NY,14111,Susan Bowman,7163372695,http://www.bowmanfarmsinc.com,Daily 9am-5pm,June 11-October 16,M,Y,Y,N,Y,42.57506,-78.93838,POINT (-78.93838 42.57506)
Erie,Clarence Hollow Farmers' Market,"10717 Main St , Bike Path Parking Lot Clarence",10717 Main St,Clarence,NY,14031,Cheryl Anthony,7167591075,http://www.clarencefarmersmarket.com,Sat 8am-1pm,June 1-October 26,M,Y,N,N,Y,42.9808,-78.58904,POINT (-78.58904 42.9808)
Erie,Clinton Bailey Sat Farmers' Market,1517 Clinton St Buffalo,Bailey Ave and Clinton St,Buffalo,NY,14206,Sharon Baldi,7168222466,http://www.clintonbaileymarket.com,Sat 4am-6pm Winter: 6am-1pm,Year-round,YR,N,Y,N,Y,42.87205,-78.81998,POINT (-78.81998 42.87205)
Erie,Downtown Buffalo Country Thursday Farmers' Market,Fountain Plaza 580 Main St,580 Main Street  Fountain Plaza,Buffalo,NY,14202,Marisa Groom,7168563150,https://buffaloplace.com/play/our-events/#countrymarket,Thu 10am-2pm,June 6-October 24,M,Y,Y,N,Y,42.88951,-78.87353,POINT (-78.87353 42.88951)
Erie,East Aurora Saturday Farmers' Market,127 Grey St.,123 Grey St,East Aurora,NY,14052,Gail Fenton,5853562357,http://www.eastaurorafarmersmarket.com,Sat 7am-1pm,May 6-November 23,P/M,Y,N,N,Y,42.76593,-78.63413,POINT (-78.63413 42.76593)
Erie,East Aurora Wednesday Farmers' Market,127 Grey St.,123 Grey St,East Aurora,NY,14052,Gail Fenton,5853562357,http://www.eastaurorafarmersmarket.com,Wed 7am-1pm,May 8-November 27,P/M,Y,N,N,Y,42.76593,-78.63413,POINT (-78.63413 42.76593)
Erie,Elmwood Village Farmers' Market,Bidwell Parkway corner of Elmwood Ave,Elmwood Ave and Bidwell Pkwy,Buffalo,NY,14222,Karen Vilonen,7166915388,http://www.elmwoodmarket.org,Sat 8am-1pm,May 11-November 30,P/M,Y,Y,Y,Y,42.92371,-78.87702,POINT (-78.87702 42.92371)
Erie,Hamburg Farmers' Market,45 Church St.,45 Church St.,Hamburg,NY,14075,Jamie Decker,7166497917,,Sat 7:30am-1pm,May 4-October 26,P/M,Y,Y,N,Y,42.71677,-78.82994,POINT (-78.82994 42.71677)
Erie,Holland Farmers' Market,"25 North Main St. Holland, Municipal lot Next to Fire Dept",25 North Main St.,Holland,NY,14080,Marg Wnek,7165379590,http://www.thehollandmkt.com,Sun 8:30am-1pm,May 5-October 27,P/M,Y,N,N,Y,42.64149,-78.54248,POINT (-78.54248 42.64149)
Erie,Huntington Farm Stand II,11503 Main St Clarence,11503 Main Street,Clarence,NY,14031,Dan Huntington,7163930590,,Daily 11am-7pm,June 15-October 14,M,Y,Y,N,Y,42.98909,-78.55762,POINT (-78.55762 42.98909)
Erie,Kwilos Farm Farm Stand,7678 Erie Rd Derby,7678 Erie Rd.,Derby,NY,14074,Joseph Kwilos,7165496201,,"Mon-Sat 10am-6pm, Sun 10am-4pm",May 9-October 31,P/M,Y,N,N,Y,42.67729,-79.02178,POINT (-79.02178 42.67729)
Erie,MAP Mobile Market - Market at the Farmhouse,"387 Massachusetts Ave Buffalo , btwn Barton & Shields",389 Massachusetts Ave.,Buffalo,NY,14213,Karine Amato,7168825327,http://www.mass-ave.org,Thu 3pm-6pm,Year-round,YR,N,Y,N,Y,42.9128,-78.88774,POINT (-78.88774 42.9128)
Erie,MAP Mobile Market - Mrs. Frances Nash,136 Broadway Ave Buffalo,136 Broadway Ave,Buffalo,NY,14203,Karine L. Amato,7168825327,,Tue 4:30pm-6:30pm,June 4-November 1,M,Y,Y,N,Y,42.88616,-78.87168,POINT (-78.87168 42.88616)
Erie,MAP Mobile Market-Broadway Pediatrics,1021 Broadway Ave Buffalo,1021 Broadway,Buffalo,NY,14212,Karine Amato,7168825327,http://www.mass-ave.org/shop,Fri 11am-1pm,June 7-October 25,M,Y,Y,N,Y,42.89349,-78.83677,POINT (-78.83677 42.89349)
Erie,MAP Mobile Market-Buffalo Adult Education,160 Edward St Buffalo,389 Virginia St.,Buffalo,NY,14201,Karine Amato,7168825327,http://www.mass-ave.org/shop,Thu 10am-12pm,March 1-December 12,W/P/M/X,Y,Y,N,Y,42.89682,-78.87764,POINT (-78.87764 42.89682)
Erie,MAP Mobile Market-Elim Fellowship,"70 Chalmers Ave Buffalo, Parking lot at Holden St",70 Chalmers Avenue,Buffalo,NY,14214,Karine Amato,7168825327,http://www.mass-ave.org,Wed 4:30pm-6pm,June 5-October 30,M,Y,Y,N,Y,42.93779,-78.83581,POINT (-78.83581 42.93779)
Erie,MAP Mobile Market-Jericho Road Barton,Jericho Rd Community Health Center Barton Clinic  184 Barton St,184 Barton Street,Buffalo,NY,14213,Karine Amato,7168825327,http://www.mass-ave.org,Tue 11:30am-1pm,June 4-October 29,M,Y,Y,N,Y,42.9179,-78.89466,POINT (-78.89466 42.9179)
Erie,MAP Mobile Market-Jonhnnie B. Wiley,110 Jefferson Ave Buffalo,110 Jefferson Avenue,Buffalo,NY,14204,Karine Amato,7168825327,http://mass-ave.org,Sat 10:30am-12pm,June 8-November 2,M,N,Y,N,Y,42.87815,-78.8547,POINT (-78.8547 42.87815)
Erie,MAP Mobile Market-Muslim Society,1955 Genesee St Buffalo,1955 Genesee St.,Buffalo,NY,14211,Karine Amato,7168825327,http://www.mass-ave.org/shop,Fri 2:30pm-4pm,June 7-October 25,M,N,Y,N,Y,42.91378,-78.80951,POINT (-78.80951 42.91378)
Erie,MAP Mobile Market-Neighboorhood Health Center NW,155 Lawn Ave Buffalo,155 Lawn Ave,Buffalo,NY,14207,Karine Amato,7168825327,http://www.mass-ave.org,Wed 11am-1pm,June 5-October 30,M,Y,Y,N,Y,42.9506,-78.8895,POINT (-78.8895 42.9506)
Erie,MAP Mobile Market-Neighborhood Health Center Mattina,300 Niagara St Buffalo,300 Niagara Street,Buffalo,NY,14201,Karine Amato,7168825327,http://www.mass-ave.org,Wed 11am-1pm,June 5-October 30,M,Y,Y,N,Y,42.89206,-78.88399,POINT (-78.88399 42.89206)
Erie,MAP Mobile Market-Undergrounds,580 South Park Ave Buffalo,580 South Park Avenue,Buffalo,NY,14214,Karine Amato,7168825327,http://mass-ave.org,Sat 1pm-2:30pm,June 8-November 2,M,N,Y,N,Y,42.87085,-78.85798,POINT (-78.85798 42.87085)
Erie,Mrs. Nash's Garden Basket,136 Broadway Ave (parking lot),136 Broadway Ave,Buffalo,NY,14203,Audrey Clark,7163221002,https://www.michiganstreetbuffalo.org/,Tue 4:30pm-6pm,May 28-October 8,M,Y,N,N,Y,42.88689,-78.8681,POINT (-78.8681 42.88689)
Erie,Providence Farm Collective Farmers' Market,130 Grant St Buffalo,130 Grant Street,Buffalo,NY,14218,Hamadi Ali,7169311991,http://providencefarmcollective.org,Sat 10am-2pm,June 22-October 26,M,Y,Y,N,Y,42.91746,-78.89072,POINT (-78.89072 42.91746)
Erie,Urbanowicz Acres Farm Stand,1417 Eden Evans Ctr Rd Angola,1417 Eden Evans Ctr Rd,Angola,NY,14006,Elaine Urbanowicz,7169843453,http://www.urbanowiczacres.com,"Sun 11am-4pm, Mon-Sat 11am-6pm",Year-round,YR,N,N,N,Y,42.65224,-79.00035,POINT (-79.00035 42.65224)
Essex,Elizabethtown Farmers' Market,"7590 Court St., Behind Adirondack Center Museum",7590 Court St,Elizabethtown,NY,12932,Jane Desotelle,5185634777,http://www.adirondackfarmersmarket.com,Fri 9am-1pm,June 14-September 6,M,Y,N,N,Y,44.21552,-73.59168,POINT (-73.59168 44.21552)
Essex,Keene Farmers' Market,Rt. 73 Marcy Airfield 1 mi. South of Rt. 9N jct.,2253 State Route 73,Keene Valley,NY,12943,Brendan Richardson,5185218873,http://www.adirondackfarmersmarket.com,Sun 9:30am-2pm,May 26-October 13,M,Y,N,N,Y,44.22067,-73.78561,POINT (-73.78561 44.22067)
Essex,Mountain Weavers' Farm Store,4322 Main St Port Henry,4322 Main Street,Port Henry,NY,12974,Andrea Connor,5185461096,http://www.mountainweaversfarmstore.org,Mon-Fri 10am-4:30pm,Year-round,YR,N,Y,N,Y,44.04849,-73.45958,POINT (-73.45958 44.04849)
Essex,Schroon Lake  Farmers' Market,29 Leland Ave Town Pavilion,29 Leland Avenue,Schroon Lake,NY,12870,Alexis Conners,5859440097,http://schroonlakefarmersmarket.com,Sat 9am-1pm,June 15-September 7,M,Y,N,N,Y,43.83632,-73.75876,POINT (-73.75876 43.83632)
Essex,Ticonderoga Area Farmers' Market,Champlain Ave and McMormick St,Champlain Ave and McMormick Street,Ticonderoga,NY,12883,Kelly Carey,5185856619,http://www.ticonderogany.com,Sat 9am-12pm,July 13-October 12,M,Y,N,N,Y,43.84925,-73.42296,POINT (-73.42296 43.84925)
Essex,Willsboro Farmers' Market,Route 22 South of Champlain National Bank,3900 NY Rt 22,Willsboro,NY,12996,Linda Therrien,5189634383,,Thu 9am-1pm,June 20-August 29,M,Y,N,N,Y,44.36971,-73.395629,POINT (-73.395629 44.36971)
Franklin,JCEO MM-Catherine St. Housing,"77 Catherine St. Malone, Catherine St. Housing",50 Catherine St.,Malone,NY,12953,Karissa Matott,5183194028,http://www.jceo.org,Wed 10am11:30am,June 5-August 28,M,Y,Y,N,Y,44.84784,-74.29154,POINT (-74.29154 44.84784)
Franklin,JCEO MM-Elm St. Housing,215 Elm St Malone,215 Elm St,Malone,NY,12953,Karissa Matott,5183194028,http://www.jceo.org,Thu 12pm-1:30pm,June 6-August 29,M,Y,Y,N,Y,44.85535,-74.28165,POINT (-74.28165 44.85535)
Franklin,JCEO MM-Malone Rec Park,"208 Duane St, Malone",208 Duane St,Malone,NY,12953,Karissa Matott,5183194028,http://www.jceo.org,Wed 12pm-1:30pm,June 5-August 28,M,Y,Y,N,Y,44.83966,-74.29062,POINT (-74.29062 44.83966)
Franklin,JCEO MM-Sawyer Ave Housing,"70 Sawyer Ave, Malone",70 Sawyer Ave,Malone,NY,12953,Karissa Matott,5183194028,http://www.jceo.org,Tue 12pm-1:30pm,June 4-August 27,M,Y,Y,N,Y,44.85159,-74.30452,POINT (-74.30452 44.85159)
Franklin,JCEO MM-Trails of Malone,156 Falling Leaf Dr. Malone,166 Falling Leave Dr.,Malone,NY,12953,Karissa Matott,5183194028,http://www.jceo.org,Thu 10am-11:30am,June 6-August 29,M,Y,Y,N,Y,44.83505,-74.2986,POINT (-74.2986 44.83505)
Franklin,JCEO MM-Windmill Estates,"51 Windmill Ln, Malone",51 Windmill Ln,Malone,NY,12953,Karissa Matott,5183194028,http://www.jceo.org,Tue 10am-11:30am,June 4-August 27,M,Y,Y,N,Y,44.84873,-74.26749,POINT (-74.26749 44.84873)
Franklin,Malone Farmers' Market,27 Airport Rd (Rte 11),27 Airport Road,Malone,NY,12953,Kimberly Ovitt,8043564447,http://www.adirondackfarmersmarket.com,Wed 12pm-4:30pm,May 22-October 2,P/M,Y,N,N,Y,44.84733,-74.32773,POINT (-74.32773 44.84733)
Franklin,Saranac Lake Farmers' Market,"Riverside Park , Corner of Main St & Route 3",Corner of Main St. & Route 3,Saranac Lake,NY,12983,Ashley Garwood,9196165850,,Sat 9am-2pm,May 18-October 12,P/M,Y,Y,N,Y,44.32503,-74.13178,POINT (-74.13178 44.32503)
Fulton,Gloversville Farmers' Market,Elm Street Pavilion,9 Elm Street,Gloversville,NY,12078,Michael Tillson,5188829306,http://www.fmfma.org,Sat 8:30am-12:30pm,May 13-October 12,P/M,Y,N,N,Y,43.052604,-74.345796,POINT (-74.345796 43.052604)
Fulton,Harmony Harvest and Herd Farm Stand,159 County Highway 148 Johnstown,159 County Highway 148,Johnstown,NY,12095,Shauna Hauser,5187729257,,Sun 11am-4pm,June 16-November 10,M,Y,Y,N,Y,42.98984,-74.36296,POINT (-74.36296 42.98984)
Fulton,Johnstown Farmers' Market,"Shirley J Luck Senior Center , 109 E. Main St",109 E. Main Street,Johnstown,NY,12095,Michael Tillson,5188829306,http://www.fmfma.org,Tue 3pm-6pm,June 28-October 15,M,Y,N,N,Y,43.00731,-74.36427,POINT (-74.36427 43.00731)
Genesee,Corfu Farmers Market,63 Alleghany Rd,63 Alleghany Road,Corfu,NY,14036,Katy Hobbs,5858138501,,Mon 4pm-7pm,July 10-September 25,M,Y,N,N,Y,42.96113,-78.40565,POINT (-78.40565 42.96113)
Genesee,Curbside Market-Rochester Psychiatric Ctr,1111 Elmwood Ave,1111 Elmwood Avenue,Rochester,NY,14620,Matthew Reifsteck,5854134057,http://www.foodlinkny.org,Fri 10:30am-11:15am,Year-round,YR,Y,Y,N,Y,43.12219,-77.61222,POINT (-77.61222 43.12219)
Genesee,Genesee Country Friday Farmers' Market,School Street and Jackson Street Batavia,School Street and Jackson Street,Batavia,NY,14020,Rebecca Grela,7168703828,,Fri 9am-4pm,June 7-November 1,M,Y,Y,Y,Y,42.99905,-78.18151,POINT (-78.18151 42.99905)
Genesee,Genesee Country Thursday Farmers' Market,School Street and Jackson Street Batavia,School Street and Jackson Street,Batavia,NY,14020,Rebecca Grela,7168703828,,Thu 9am-4pm,June 13-October 31,M,Y,Y,Y,Y,42.99905,-78.18151,POINT (-78.18151 42.99905)
Genesee,Genesee Country Tuesday Farmers' Market,Bank St at Alva Place Batavia,School Street and Jackson Street,Batavia,NY,14020,Rebecca Grela,7168703828,,Tue 9am-4pm,June 11-October 29,M,Y,Y,Y,Y,42.99905,-78.18151,POINT (-78.18151 42.99905)
Genesee,LeRoy Farmers' Market,Trigon Park Route 5 (Main St),Trigon Park,Le Roy,NY,14482,Andres Manamon,5624000398,http://www.leroyfarmersmarket.wordpress.com,Sat 9am-12:30pm,June 8-October 5,M,Y,N,N,Y,42.97756,-77.98592,POINT (-77.98592 42.97756)
Greene,Black Horse Farms Farm Stand,10094 Route 9W Athens,10094 Rte 9W,Athens,NY,12015,Chellie Apa,5187318776,http://www.blackhorsefarms.com,Daily 9am-6pm,Year-round,YR,N,Y,N,Y,42.30634,-73.85043,POINT (-73.85043 42.30634)
Greene,Catskill Farmers' Market,145 Water St,145 Water St,Catskill,NY,12414,Christine Ritmo,5182918779,,Sun 10am-2pm,May 26-October 27,M,Y,Y,Y,Y,42.21975,-73.8671,POINT (-73.8671 42.21975)
Greene,Fromer Market Gardens Farm Stand,6120 Main St Tannersville,6120 Main Street,Tannersville,NY,12485,Samantha Metz,8622001935,http://www.fromermarketgardens.com,Sat 9am-2pm,Year-round,YR,N,Y,N,Y,42.19546,-74.13889,POINT (-74.13889 42.19546)
Greene,Stoneledge Farm Stand,145 Garcia Lane Leeds,145 Garcia Lane,Leeds,NY,12451,Candice Kavakos,5188199966,http://www.stoneledge.farm,Sat/Sun 9am-4pm,May 12-October 13,P/M,Y,N,N,Y,42.27878,-73.95216,POINT (-73.95216 42.27878)
Greene,Vernon Street Farm Farm Stand,93 N Vernon St Athens,93 North Vernon Street,Athens,NY,12015,Joshua Bary,5189450135,,Sat 10am-1pm,May 25-November 2,P/M,Y,Y,N,Y,42.26833,-73.80801,POINT (-73.80801 42.26833)
Herkimer,Dolgeville Farmers' Market,Plowe Park South Main Street,Plowe Park South Main Street,Dolgeville,NY,13329,Christine Reynolds,3158684557,,Sat 9am-1pm,May 18-October 26,P/M,Y,N,N,Y,43.09696,-74.77649,POINT (-74.77649 43.09696)
Herkimer,Little Falls Farmers' & Flea Market,M&T Bank parking lot  Albany St,Albany Street and 2nd Street,Little Falls,NY,13365,Mary Davis,3158662619,,Sat 8am-12pm,May 4-October 26,P/M,Y,N,N,Y,43.04284,-74.85828,POINT (-74.85828 43.04284)
Herkimer,MAWS Farm Stand,7342 Main St Newport,7342 Main Street,Newport,NY,13416,Michael Skwara,3159850088,http://www.mawsfarm.com,Daily 9am-6pm,Year-round,YR,N,Y,N,Y,43.18096,-75.01054,POINT (-75.01054 43.18096)
Herkimer,Mohawk Valley Farmers' Market,142 N Main St Herkimer,142 North Main Street,Herkimer,NY,13350,Pooniel Healy,3152199195,,Fri 12pm-6pm,June 28-October 12,M,Y,N,N,Y,43.0263,-74.98656,POINT (-74.98656 43.0263)
Herkimer,Old Forge Farmers' Market,201 North St George Hiltebrant Rec Center Parking Lot,Crosby Blvd and Park Ave,Old Forge,NY,13420,Robin Hill,3153693353,http://livingadk.org,Fri 1pm-5pm,June 21-October 11,M,Y,N,N,Y,43.70893,-74.97286,POINT (-74.97286 43.70893)
Herkimer,Town of Herkimer Farmers' Market,"154 Pine Grove Rd. , Herkimer",154 Pine Grove Rd.,Herkimer,NY,13350,Kathi Nasypany,3152197600,,Thu 3pm-6pm,June 27-September 5,M,Y,N,N,Y,43.03232,-74.96209,POINT (-74.96209 43.03232)
Jefferson,Clayton Chamber of Commerce Farmers' Market,Village Park Circle 425 Mary St,425 Mary Street,Clayton,NY,13624,Mike Hooson,3156863771,http://www.1000islands-clayton.com,Thu 10am-4pm,May 30-October 17,P/M,Y,Y,N,Y,44.23992,-76.08508,POINT (-76.08508 44.23992)
Jefferson,Northrop Farms Farm Stand,30058 State Route 180 Watertown,30058 State Route 180,Watertown,NY,13601,Jennifer Northrop,3157710350,,Daily 9am-6pm,June 1-October 31,M,Y,Y,N,Y,44.10375,-75.98435,POINT (-75.98435 44.10375)
Jefferson,Watertown Farm & Craft Market,"245 Washington Street , State Office Building Plaza",245 Washington Street,Watertown,NY,13601,Allison Andrews,3157884400,http://www.watertownfarmandcraft.com,Wed 7am-3pm,May 22-October 2,P/M,Y,Y,N,Y,43.9726,-75.91001,POINT (-75.91001 43.9726)
Jefferson,Watertown Saturday Farmers' Market,175 Black River Parkway,175 Black River Parkway,Watertown,NY,13601,Mike Nuckols,3157888450,,Sat 9am-2pm,May 18-October 26,P/M,Y,Y,N,Y,43.97651,-75.90988,POINT (-75.90988 43.97651)
Kings,4th Ave. Sunset Park Greenmarket,4th Ave & 60th St,4th Ave and 60th St,Brooklyn,NY,11220,Iliana Garcia,2127887900,http://www.grownyc.org/greenmarket,Sat 8am-3pm,July 6-November 23,M,Y,Y,N,Y,40.64081,-74.01836,POINT (-74.01836 40.64081)
Kings,7th Ave. Sunset Park Greenmarket,7th Ave & 44th St,602 44th Street,Brooklyn,NY,11220,Iliana Garcia,2127887900,http://www.grownyc.org/greenmarket,Sat 8am-3pm,Year-round,YR,N,Y,N,Y,40.64693,-74.00447,POINT (-74.00447 40.64693)
Kings,Bartel-Pritchard Square Sun Greenmarket,Prospect Park West @ 15th St,205 Prospect Park West,Brooklyn,NY,11215,Iliana Garcia,2127887900,http://www.grownyc.org/greenmarket,Sun 9am-2pm,May 5-December 22,P/M/X,Y,Y,N,Y,40.66055,-73.97984,POINT (-73.97984 40.66055)
Kings,Bartel-Pritchard Square Wed Greenmarket,Prospect Park West @ 15th St,205 Prospect Park West,Brooklyn,NY,11215,Iliana Garcia,2127887900,http://www.grownyc.org/greenmarket,Wed 8am-2pm,Year-round,YR,Y,Y,N,Y,40.66055,-73.97984,POINT (-73.97984 40.66055)
Kings,Bay Ridge Greenmarket,3rd Ave & 95th St,9408 3rd Avenue,Brooklyn,NY,11209,Iliana Garcia,2127887900,http://www.grownyc.org/greenmarket,Sat 8am-3pm,May 4-November 23,P/M,Y,Y,N,Y,40.61761,-74.03363,POINT (-74.03363 40.61761)
Kings,Bed Stuy GrowNYC Farm Stand,Decatur St. & Lewis Ave,406 Decatur Street,Brooklyn,NY,11233,Rev. Robert Jackson,9173016747,,Saturday  9am-11am,Year-Round,YR,N,Y,N,Y,40.68218,-73.92683,POINT (-73.92683 40.68218)
Kings,Bed-Stuy GrowNYC Farmstand,Decatur Street & Lewis Ave,Decatur Street & Lewis Ave,Brooklyn,NY,11233,Meredith Clark,,https://www.grownyc.org/farmstands,Sat 9am-2pm,Year-round,YR,Y,N,N,Y,40.68134,-73.93467,POINT (-73.93467 40.68134)
Kings,Bensonhurst Greenmarket,18th Ave btwn 81st & 82nd St,8118 18th Ave,Brooklyn,NY,11214,Iliana Garcia,2127887900,http://www.grownyc.org/greenmarket,Sun 9am-3pm,June 2-November 24,M,Y,Y,N,Y,40.60987,-73.99966,POINT (-73.99966 40.60987)
Kings,Boro Park Greenmarket,14th Ave btwn 49th & 50th St,4910 14th Ave,Brooklyn,NY,11219,Iliana Garcia,2127887900,http://www.grownyc.org/greenmarket,Thu 8am-2pm,July 11-November 21,M,Y,Y,N,Y,40.63349,-73.99022,POINT (-73.99022 40.63349)
Kings,Brooklyn Borough Hall Saturday Greenmarket,Montague St & Court St,211 Montague Street,Brooklyn,NY,11201,Iliana Garcia,2127887900,http://www.grownyc.org/greenmarket,Sat 8am-3pm,Year-round,YR,Y,Y,N,Y,40.69416,-73.99076,POINT (-73.99076 40.69416)
Kings,Brooklyn Borough Hall Tuesday Greenmarket,Montague St & Court St,211 Montague Street,Brooklyn,NY,11201,Iliana Garcia,2127887900,http://www.grownyc.org/greenmarket/brooklyn/boro-hall-sa,Tue 8am-3pm,Year-round,YR,Y,Y,N,Y,40.69416,-73.99076,POINT (-73.99076 40.69416)
Kings,Brownsville Pitkin GrowNYC Farm Stand,Pitkin Ave and Thomas Boyland St,Pitkin Avenue and Thomas Boyland Street,Brooklyn,NY,11212,Meredith Clark,,https://www.grownyc.org/farmstands,Sat 8:30am-1:30pm,July 6-November 23,M,Y,Y,N,Y,40.66926,-73.91356,POINT (-73.91356 40.66926)
Kings,Carroll Gardens Greenmarket,330 Smith St                                          Smith & Carroll Streets,330 Smith Street,Brooklyn,NY,11231,Iliana Garcia,2127887900,http://www.grownyc.org/greenmarket/brooklyn/carroll-gardens,Sun 8am-2pm,Year-round,YR,Y,Y,N,Y,40.68036,-73.99536,POINT (-73.99536 40.68036)
Kings,Cortelyou Greenmarket,Cortelyou btwn Rugby & Argyle,1305 Cortelyou Road,Brooklyn,NY,11226,Iliana Garcia,2127887900,https://www.grownyc.org/farmstands,Sun 8am-2pm,Year-round,YR,Y,Y,N,Y,40.64071,-73.9659,POINT (-73.9659 40.64071)
Kings,Crown Heights GrowNYC Farm Stand,Nostrand Ave and Crown St,Nostrand Ave and Crown St,Brooklyn,NY,11255,Meredith Clark,,http://grownyc.org/farmstands,Fri 9am-2pm,Year-round,YR,Y,Y,N,Y,40.66629,-73.95081,POINT (-73.95081 40.66629)
Kings,Cypress Hills GrowNYC Farm Stand,Fulton St btwn Richmond & Logan Sts,Fulton St. and Logan St.,Brooklyn,NY,11208,Meredith Clark,,https://www.grownyc.org/farmstands,Fri 9am-2pm,July 5-November 22,M,Y,Y,N,Y,40.68206,-73.87788,POINT (-73.87788 40.68206)
Kings,East New York Farm Stand,404 Pine St Brooklyn,404 Pine St,Brooklyn,NY,11208,Elli Sol Strich,7186497979,http://ucceny.org,Thu 1:30pm-5:30pm,July 11-October 31,M,Y,Y,N,Y,40.67578,-73.87123,POINT (-73.87123 40.67578)
Kings,East New York Farmers' Market,620 Schenck Ave Brooklyn,620 Schenk Ave,Brooklyn,NY,11207,Elli Sol Strich,7186497979,http://ucceny.org/enyf,Sat 9am-3pm,June 29-November 9,M,Y,Y,N,Y,40.66526,-73.88661,POINT (-73.88661 40.66526)
Kings,Fort Greene Greenmarket,Washington Park & Dekalb,209 Washington Park,Brooklyn,NY,11205,Iliana Garcia,2127887900,http://www.grownyc.org/greenmarket/brooklyn/fort-greene,Sat 8am-3pm,Year-round,YR,Y,Y,N,Y,40.68975,-73.97299,POINT (-73.97299 40.68975)
Kings,Grand Army Plaza Greenmarket,1 Prospect Park                                    Grand Army Plaza,1 Prospect Park,Brooklyn,NY,11238,Iliana Garcia,2127887900,http://www.grownyc.org/greenmarket/brooklyn-grand-army-plaza,Sat 8am-3pm,Year-round,YR,Y,Y,N,Y,40.66062,-73.97943,POINT (-73.97943 40.66062)
Kings,Harvest Home Brower Park Farmers' Market,Prospect Place & Brooklyn Avenue,Prospect Place and Brooklyn Ave.,Brooklyn,NY,11213,Perla Vazquez,2128283361,http://www.harvesthomefm.org,Thu 8am-3pm,June 13-November 14,M,Y,Y,N,Y,40.674,-73.94454,POINT (-73.94454 40.674)
Kings,Harvest Home Coney Island Farmers' Market,Ocean Parkway btwn Shore Pkwy & Ave Z,Ocean Pkwy and Avenue Z,Brooklyn,NY,11235,Perla Vazquez,2128283361,http://www.harvesthomefm.org,Fri 8am-3pm,June 14-November 15,M,Y,Y,N,Y,40.58669,-73.96578,POINT (-73.96578 40.58669)
Kings,Harvest Home Farmers' Market-Utica Ave,Eastern Parkway between Utica Ave & Rochester Ave,Eastern Parkway between Utica Ave & Rochester Ave,Brooklyn,NY,11213,Perla Vazquez,2128283361,http://www.harvesthomefm.org,Wed 11am-6pm,June 12-November 20,M,Y,Y,N,Y,40.66837,-73.92988,POINT (-73.92988 40.66837)
Kings,Harvest Home Kings Co. Hospital Farmers' Market,Clarkson Ave btwn E 37th & E 39th Sts.,511 Clarkson Ave,Brooklyn,NY,11203,Perla Vazquez,2128283361,http://www.harvesthomefm.org,Wed 8am-3pm,June 12-November 20,M,Y,Y,N,Y,40.65588,-73.94245,POINT (-73.94245 40.65588)
Kings,Isabahlia Farm Stand - Livonia Ave,410 Livonia Ave Brooklyn,410 Livonia Ave,Brooklyn,NY,11212,Brenda Thompson-Duchene,7184983174,http://www.isabahlialoefinc.org,Sat 9am-3pm,July 6-October 26,M,Y,Y,N,Y,40.66353,-73.90226,POINT (-73.90226 40.66353)
Kings,Isabahlia Farm Stand-Rockaway Ave,514 Rockaway Ave Brooklyn,514 Rockaway Avenue,Brooklyn,NY,11212,Brenda Thompson-Duchene,7184983174,http://www.isabahlialoefinc.org,Fri/Sat 9am-3pm,July 5-October 26,M,Y,Y,N,Y,40.66751,-73.91021,POINT (-73.91021 40.66751)
Kings,McCarren Park Greenmarket,N 12th St btwn Union & Driggs,228 North 12th Street,Brooklyn,NY,11222,Iliana Garcia,2127887900,http://www.grownyc.org/greenmarket/brooklyn/greenpoint-sa,Sat 8am-3pm,Year-round,YR,Y,Y,N,Y,40.71945,-73.95312,POINT (-73.95312 40.71945)
Kings,McGolrick Park Farmers' Market,"130 Russell St. Brooklyn, Center Pavillion in McGolrick Park",130 Russell Street,Brooklyn,NY,11222,Dacotah Rousseau,9149234837,http://www.downtoearthmarkets.com,Sun 9am-2pm,Year-round,YR,Y,Y,N,Y,40.72483,-73.94432,POINT (-73.94432 40.72483)
Kings,Park Slope Farmers' Market,"289 4th St at 5th Ave near PS 51 , Brooklyn",289 4th Street,Brooklyn,NY,11215,Dacotah Rousseau,9149234837,http://www.downtoearthmarkets.com,Sun 9am-2pm,Year-round,YR,Y,Y,N,Y,40.6722,-73.98379,POINT (-73.98379 40.6722)
Kings,Riseboro Hope Ball Field Farmers' Market,Knickerbocker Ave btwn Menahan and Grove Sts,Knickerbocker Ave,Bushwick,NY,10301,Virginia Cross,7188210254,http://www.riseboro.org,Wed 9am-3pm,June 5-November 27,M,Y,Y,N,Y,40.70117,-73.92252,POINT (-73.92252 40.70117)
Kings,Riseboro Irving Square Farmers' Market,Knickerbocker Ave btw Wierfield & Halsey Sts Brooklyn,Knickerbocker Ave between Wierfield and Halsey Streets,Brooklyn,NY,10302,Virginia Cross,7188210254,,Sun 8am-1pm,July 21-November 24,M,Y,Y,N,Y,40.69325,-73.90859,POINT (-73.90859 40.69325)
Kings,Riseboro Maria Hernandez Pk Farmers' Market,Knickerbocker Ave @ Starr & Suydam,Knickerbocker Avenue,Brooklyn,NY,11206,Virginia Cross,7188210254,http://www.riseboro.org,Sat 8am-3pm,May 18-November 23,P/M,Y,Y,N,Y,40.70257,-73.92497,POINT (-73.92497 40.70257)
Kings,Woodhull Hospital GrowNYC Farm Stand,Broadway & Graham Ave,Marcus Garvey Boulevard and Broadway,Brooklyn,NY,11206,Meredith Clark,,https://www.grownyc.org/farmstands,Wed 9am-2pm,July 3-November 27,M,Y,Y,N,Y,40.70029,-73.94111,POINT (-73.94111 40.70029)
Kings,Wyckoff House Museum Farm Stand,5816 Clarendon Rd Brooklyn,5816 Clarendon Road,Brooklyn,NY,11203,Paul Joseph,7186295400,,Sat 11am-3pm,June 15-November 2,M,Y,Y,N,Y,40.64439,-73.92083,POINT (-73.92083 40.64439)
Lewis,Colwell's Farm Market and Garden Center,6007 State Route 12 Glenfield,6007 State Route 12,Glenfield,NY,13343,Michael Colwell,3153767402,http://www.colwellsfarmmarket.com,"Mon-Sat  8am-7pm, Sun 9am-6pm",April 1-November 17,P/M,Y,N,N,Y,43.71844,-75.41148,POINT (-75.41148 43.71844)
Lewis,Lewis Co. General Hospital Farmers' Market,"7785 N State St Lowville, Children's Clinic Parking Lot",7785 North State St,Lowville,NY,13367,Darcy Zehr,3153765225,http://www.lcgh.net,Thu 11am-2pm,June 6-October 10,M,Y,N,N,Y,43.79599,-75.49832,POINT (-75.49832 43.79599)
Lewis,Lyons Falls Farmers' Market,6904 Laura St. Riverside Park,6904 Laura St,Lyons Falls,NY,13368,Catherine Liendecker,3153488744,http://www.lewisfirst.com/lyonsfallsalive,Tue 11am-4pm,June 11-October 1,M,Y,Y,N,Y,43.61458,-75.3562,POINT (-75.3562 43.61458)
Lewis,Roads End Orchards Farm Stand,5044 Crofoot Hill Rd Constableville,5044 Crofoot Hill Road,Constableville,NY,13325,Matthew Swiernik,3157833695,http://www.roadsendorchards.com,"Sat/Sun 12pm-4pm, Tues/Wed/Fri 11am-4pm",Year-round,YR,N,N,N,Y,43.59227,-75.48159,POINT (-75.48159 43.59227)
Livingston,Curbside Market-ABC Head Start,251 Joseph Ave Rochester,251 Joseph Ave,Rochester,NY,14605,Matthew Reifsteck,5854134057,http://www.foodlinkny.org,Fri 2:15-3pm,Year-round,YR,Y,Y,N,Y,43.16828,-77.60817,POINT (-77.60817 43.16828)
Livingston,Lima Presbyterian Church Farmers' Market,"7295 W Main St, Corner of Route 15A",7295 W. Main St.,Lima,NY,14485,Suzanne Muehleisen,5857529238,http://limapreschurch.org,Tue 3pm-6pm,June 25-October 22,M,Y,Y,N,Y,42.90496,-77.61175,POINT (-77.61175 42.90496)
Madison,Cazenovia Farmers Market,Memorial Park Route 20 Albany St,36-38 Albany Street Memorial Park,Cazenovia,NY,13035,Anna Marie Newland,3156559243,http://www.cazenoviachamber.com,Sat 9am-2pm,May 4-October 26,P/M,Y,N,N,Y,42.92943,-75.85504,POINT (-75.85504 42.92943)
Madison,Cazenovia WINTER Farmers' Market,American Legion Hall 26 Chenango St,26 Chenango Street,Cazenovia,NY,13035,Tricia Park,3157202141,,1st&3rd Sat 10am-1pm,"November 2-April 19, 2025",M/X/W/P,N,N,N,Y,42.92467,-75.85168,POINT (-75.85168 42.92467)
Madison,Cottage Lawn Farmers' Market,"435 Main St. Oneida, Madison Co. Historical Society",435 Main St.,Oneida,NY,13421,Colleen Donahue,3153634136,http://www.mchsfarmersmarket.org,Tue 2pm-6pm,June 4-August 27,M,Y,N,N,Y,43.08719,-75.64705,POINT (-75.64705 43.08719)
Madison,Dizzy Lizzie's Farm Farm Stand,3823 Sanderson Rd Erieville,3823 Sanderson Rd,Erieville,NY,13061,Elizabeth Blackburn,3156627565,http://www.dizzylizziesfarm.com,Wed 9am-12pm,July 3-October 2,M,Y,N,N,Y,42.83934,-75.74399,POINT (-75.74399 42.83934)
Madison,Kubeckas Farm Stand,691 Chestnut Ridge Rd Kirkville,691 Chestnut Ridge Rd,Kirkville,NY,13082,Karissa Atwood,3156875103,,"Mon-Fri 10am-6pm, Sat 10am-5pm  Sun 11am-3pm",June 9-October 31,M,Y,Y,N,Y,43.11239,-75.94782,POINT (-75.94782 43.11239)
Madison,Village of Hamilton Farmers Market,Village Green 3 Broad St.,3 Broad St,Hamilton,NY,13346,Kim Taranto,3158241111,http://www.hamilton-ny.gov,Sat 8am-1pm,May 4-October 26,P/M,Y,Y,Y,Y,42.82684,-75.54436,POINT (-75.54436 42.82684)
Monroe,Brightly's Farm Market,525 Drake Rd Hamlin,525 Drake Rd.,Hamlin,NY,14464,Betsy Brightly,5856364337,http://www.brightlyfarms.com,"Mon-Sat 9am-5pm, Sun 10am-3pm (summer only)",Year-round,YR,N,Y,N,Y,43.29471,-77.94344,POINT (-77.94344 43.29471)
Monroe,Brighton Farmers' Market,"Brighton High School lot, 1150 Winton Rd. South",1150 Winton Rd South,Rochester,NY,14618,Sue Gardner-Smith,5852698918,http://www.brightonfarmersmarket.org,Sun 9am-1pm,April 21-November 17,P/M,Y,Y,Y,Y,43.12204,-77.56808,POINT (-77.56808 43.12204)
Monroe,Brighton WINTER Farmers' Market,1435 Westfall Rd  Rochester,1150 Winton Rd South,Rochester,NY,14618,Sue Gardner-Smith,5852698918,http://www.brightonfarmersmarket.org,Sun 10am-1pm,November 24-December 22,M/X,N,Y,N,Y,43.11275,-77.56809,POINT (-77.56809 43.11275)
Monroe,Brockport Farmers' Market,Market St off Main St,Main St and Market St,Brockport,NY,14420,Erica Linden,5856375300,http://www.brockportny.org/community/farmers-market,Sun 9am-1pm,June 9-October 27,M,Y,N,N,Y,43.21556,-77.9385,POINT (-77.9385 43.21556)
Monroe,Curbside Market-AHEPA 67 Apts,100 Ahepa Circle Rochester,100 Ahepa Circle,Rochester,NY,14580,Matthew Reifsteck,5854134057,http://www.foodlinkny.org,Sat 3:45-4:15pm,June-September,M,Y,Y,N,Y,43.20267,-77.45298,POINT (-77.45298 43.20267)
Monroe,Curbside Market-Andrews Terrace,125 St. Paul St Rochester,125 Saint Paul Street,Rochester,NY,14604,Matthew Reifsteck,5854134057,http://www.foodlinkny.org,Wed 12pm-1:15pm,Year-round,YR,Y,Y,N,Y,43.15872,-77.61047,POINT (-77.61047 43.15872)
Monroe,Curbside Market-Beechwood Neighborhood,441 Parsells Ave Rochester,441 Parsells Ave,Rochester,NY,14609,Matthew Reifsteck,5854134057,http://www.foodlinkny.org,Fri 11:45am-12:30pm,Year-round,YR,Y,Y,N,Y,43.1658,-77.56665,POINT (-77.56665 43.1658)
Monroe,Curbside Market-Carriage Factory Apts,33 Litchfield St Rochester,33 Litchfield Street,Rochester,NY,14608,Matthew Reifsteck,5854134057,http://www.foodlinkny.org,Tue 2pm-3pm,Year-round,YR,Y,Y,N,Y,43.15396,-77.62575,POINT (-77.62575 43.15396)
Monroe,Curbside Market-Charlotte Harbortown (Lake Ave),4575 Lake Ave Rochester,4575 Lake Avenue,Rochester,NY,14612,Matthew Reifsteck,5854134057,http://www.foodlinkny.org,Fri 2pm-3pm,Year-round,YR,Y,Y,N,Y,43.25492,-77.61411,POINT (-77.61411 43.25492)
Monroe,Curbside Market-Charlotte Harbortown (River St),60 River St Rochester,60 River Street,Rochester,NY,14612,Matthew Reifsteck,5854134057,http://www.foodlinkny.org,Fri 3:15pm-4:30pm,Year-round,YR,Y,Y,N,Y,43.2444,-77.61607,POINT (-77.61607 43.2444)
Monroe,Curbside Market-Cornerstone Pointe,3 GBC Parkway Greece,3 GBC Parkway,Greece,NY,14626,Matthew Reifsteck,5854134057,http://www.foodlinkny.org,Mon 1:30pm-2:15pm,Year-round,YR,Y,Y,N,Y,43.21335,-77.69366,POINT (-77.69366 43.21335)
Monroe,Curbside Market-Danforth Towers,140 West Ave Rochester,140 West Avenue,Rochester,NY,14611,Matthew Reifsteck,5854134057,http://www.foodlinkny.org,Wed 2pm-2:45pm,Year-round,YR,Y,Y,N,Y,43.15038,-77.64166,POINT (-77.64166 43.15038)
Monroe,Curbside Market-DePaul Ridgeview,109 Marburger St Rochester,109 Marburger Street,Rochester,NY,14621,Matthew Reifsteck,5854134057,http://www.foodlinkny.org,Wed 4pm-4:30pm,Year-round,YR,Y,Y,N,Y,43.19375,-77.6078,POINT (-77.6078 43.19375)
Monroe,Curbside Market-DePaul Treat. Apts Program,750 W Main St,750 W Main St,Rochester,NY,14618,Matthew Reifsteck,5854134057,http://foodlinkny.org,Tue 11:45am-12:15pm,Year-round,YR,Y,Y,N,Y,43.15133,-77.63289,POINT (-77.63289 43.15133)
Monroe,Curbside Market-DHS Westfall,111 Westfall Rd. Rochester,111 Westfall Rd.,Rochester,NY,14620,Matthew Reifsteck,5854134057,http://www.foodlinkny.org,Thu 10:30am-11:15am,Year-round,YR,Y,Y,N,Y,43.11451,-77.61886,POINT (-77.61886 43.11451)
Monroe,Curbside Market-Dunn Towers,100 Dunn Tower Dr Rochester,100 Dunn Tower Drive,Rochester,NY,14606,Matthew Reifsteck,5854134057,http://www.foodlinkny.org,Thu 10:30am-11:30am,Year-round,YR,Y,Y,N,Y,43.16924,-77.69727,POINT (-77.69727 43.16924)
Monroe,Curbside Market-Durand Senior Apts,4250 Culver Rd Rochester,4250 Culver Rd,Rochester,NY,14622,Matthew Reifsteck,5854134057,http://www.foodlinkny.org,Fri 10:15am-11:15am,Year-round,YR,Y,Y,N,Y,43.22598,-77.54736,POINT (-77.54736 43.22598)
Monroe,Curbside Market-Edna Craven Estates,625 Clifford Ave,625 Clifford Ave,Rochester,NY,14621,Matthew Reifsteck,5854134057,http://www.foodlinkny.org,Thu 3:30pm-5pm,Year-round,YR,Y,N,N,Y,43.17494,-77.60725,POINT (-77.60725 43.17494)
Monroe,Curbside Market-EL Towers,500 South Ave Rochester,500 South Ave,Rochester,NY,14620,Matthew Reifsteck,5854134057,http://www.foodlinkny.org,Tue 3:30pm-4:15pm,Year-round,YR,Y,Y,N,Y,43.1465,-77.60524,POINT (-77.60524 43.1465)
Monroe,Curbside Market-ElderOne Emerson Pace Ctr,800 Emerson St. Rochester,800 Emerson St.,Rochester,NY,14613,Camille Verbofsky,5854135077,http://www.foodlinkny.org,Thu 2pm-3pm,Year-round,YR,N,Y,N,Y,43.17387,-77.6516,POINT (-77.6516 43.17387)
Monroe,Curbside Market-ElderONE Hudson PACE Ctr,2066 Hudson Ave,2066 Hudson Ave,Rochester,NY,14617,Matthew Reifsteck,5854134057,http://www.foodlinkny.org,Tue 10:30am-11:30am,Year-round,YR,Y,Y,N,Y,43.17422,-77.65149,POINT (-77.65149 43.17422)
Monroe,Curbside Market-Ellison Park Apts,1 Bobrich Drive Rochester,1 Bobrich Drive,Rochester,NY,14610,Matthew Reifsteck,5854134057,http://www.foodlinkny.org,Sat 11am-12pm,Year-round,YR,Y,Y,N,Y,43.14917,-77.5466,POINT (-77.5466 43.14917)
Monroe,Curbside Market-ESLC East Ave,270 East Ave Rochester,270 East Avenue,Rochester,NY,14604,Matthew Reifsteck,5854134057,http://www.foodlinkny.org,Tues 12pm-12:45pm,June-September,M,Y,Y,N,Y,43.15569,-77.59664,POINT (-77.59664 43.15569)
Monroe,Curbside Market-ESLC Rockwood Ctr,3833 E Henrietta Rd,3833 E Henrietta Rd,Henrietta,NY,14467,Matthew Reifsteck,5854134057,http://www.foodlinkny.org,Fri 10:30am-11:15am,Year-round,YR,Y,Y,N,Y,43.04649,-77.62499,POINT (-77.62499 43.04649)
Monroe,Curbside Market-Fairport Apartments,1030 Whitney Rd E Fairport,1030 Whitney Road E,Fairport,NY,14450,Matthew Reifsteck,5854134057,http://www.foodlinkny.org,Thu 10:30am-11:15am,Year-round,YR,Y,Y,N,Y,43.10913,-77.43938,POINT (-77.43938 43.10913)
Monroe,Curbside Market-FIGHT Village Apts,186 Ward St Rochester,186 Ward Street,Rochester,NY,14605,Matthew Reifsteck,5854134057,http://www.foodlinkny.org,Thu 3:15-4:15pm,Year-round,YR,Y,Y,N,Y,43.16564,-77.60815,POINT (-77.60815 43.16564)
Monroe,Curbside Market-Harris Park Apartments,122 Harris Park Rochester,122 Harris Park,Rochester,NY,14610,Matthew Reifsteck,5854134057,http://www.foodlinkny.org,Tue 3:45pm-4:30pm,Year-round,YR,Y,Y,N,Y,43.15131,-77.55331,POINT (-77.55331 43.15131)
Monroe,Curbside Market-Hickok Center,2320 Brighton Townline Rd Henrietta,2320 Brighton Townline Rd,Henrietta,NY,14623,Matthew Reifsteck,5854134057,http://www.foodlinkny.org,Thu 11:45am-12:30pm,Year-round,YR,Y,Y,N,Y,43.09565,-77.61587,POINT (-77.61587 43.09565)
Monroe,Curbside Market-Hubbard Springs Apts,154 Union Square Blvd Rochester,154 Union Square Boulevard,Rochester,NY,14514,Matthew Reifsteck,5854134057,http://www.foodlinkny.org,Thu 12pm-12:30pm,June-September,M,Y,Y,N,Y,43.11395,-77.80812,POINT (-77.80812 43.11395)
Monroe,Curbside Market-Hudson Ridge Tower,401 Seneca Manor Dr Rochester,401 Seneca Manor Drive,Rochester,NY,14621,Matthew Reifsteck,5854134057,http://www.foodlinkny.org,Wed 2:45pm-3:45pm,Year-round,YR,Y,Y,N,Y,43.19309,-77.60324,POINT (-77.60324 43.19309)
Monroe,Curbside Market-Irondequoit Meadow Reserve,100 Hulda Park Rochester,100 Hulda Park,Rochester,NY,14609,Matthew Reifsteck,5854134057,http://www.foodlinkny.org,Tue 2:30pm-3:15pm,Year-round,YR,Y,Y,N,Y,43.19479,-77.56041,POINT (-77.56041 43.19479)
Monroe,Curbside Market-Jack Kenny Apts,180 Garland Ave Rochester,180 Garland Ave.,Rochester,NY,14611,Camille Verbofsky,5854135077,http://www.foodlinkny.org,Wed 3:45pm-4:30pm,Year-round,YR,N,Y,N,Y,43.15815,-77.66369,POINT (-77.66369 43.15815)
Monroe,Curbside Market-James Dobson Apts,150 Van Auker St Rochester,150 Van Auker Street,Rochester,NY,14608,Matthew Reifsteck,5854134057,http://www.foodlinkny.org,Sat 12:30pm-1:45pm,Year-round,YR,Y,Y,N,Y,43.14997,-77.62109,POINT (-77.62109 43.14997)
Monroe,Curbside Market-Keeler Apts,501 Seneca Manor Dr Rochester,501 Seneca Manor Dr.,Rochester,NY,14621,Matthew Reifsteck,5854134057,http://www.foodlinkny.org,Wed 2:30pm-4pm,Year-round,YR,Y,Y,N,Y,43.19395,-77.60168,POINT (-77.60168 43.19395)
Monroe,Curbside Market-Kennedy Towers,666 S Plymouth Ave Rochester       Parking lot on Edith St,666 South Plymouth Ave,Rochester,NY,14608,Matthew Reifsteck,5854134057,http://www.foodlinkny.org,Mon 3:15pm-4pm,Year-round,YR,Y,Y,N,Y,43.14251,-77.61894,POINT (-77.61894 43.14251)
Monroe,Curbside Market-Lake Tower Apartments,321 Lake Ave                                 Rochester Fulton Ave Parking Lot,321 Lake Ave.,Rochester,NY,14608,Matthew Reifsteck,5854134057,http://www.foodlinkny.org,Wed 10:45am-12:15pm,Year-round,YR,Y,Y,N,Y,43.17054,-77.62751,POINT (-77.62751 43.17054)
Monroe,Curbside Market-Lexington Ct Apts,6 Christopher St Rochester,6 Christopher St,Rochester,NY,14606,Matthew Reifsteck,5854134057,http://www.foodlinkny.org,Thu 3:30pm-4:30pm,Year-round,YR,Y,Y,N,Y,43.1791,-77.66474,POINT (-77.66474 43.1791)
Monroe,Curbside Market-LifeSpan Wolk Caf,25 Franklin St Near Liberty Pole Way,25 Franklin Street,Rochester,NY,14604,Matthew Reifsteck,5854134057,http://www.foodlinkny.org,Mon 12:30pm-1:30pm,Year-round,YR,Y,Y,N,Y,43.15805,-77.60484,POINT (-77.60484 43.15805)
Monroe,Curbside Market-Long Pond Sr Housing,1 GBC Parkway Greece,1230 Long Pond Road,Rochester,NY,14626,Matthew Reifsteck,5854134057,http://www.foodlinkny.org,Mon 1pm-1:30pm,Year-round,YR,Y,Y,N,Y,43.2122,-77.69579,POINT (-77.69579 43.2122)
Monroe,Curbside Market-Manhattan Sq Family Medicine,454 E Broad St Rochester,454 E Broad St,Rochester,NY,14607,Matthew Reifsteck,5854134057,http://www.foodlinkny.org,Thu 2pm-3pm,Year-round,YR,Y,Y,N,Y,43.15531,-77.59957,POINT (-77.59957 43.15531)
Monroe,Curbside Market-Maplewood YMCA,25 Driving Park Ave Rochester,25 Driving Park Ave,Rochester,NY,14613,Matthew Reifsteck,5854134057,http://www.foodlinkny.org,Wed 12pm-12:45pm,Year-round,YR,Y,Y,N,Y,43.18092,-77.63017,POINT (-77.63017 43.18092)
Monroe,Curbside Market-New Life Fellowship,360 Wellington Ave,360 Wellington Ave,Rochester,NY,14619,Matthew Reifsteck,5854134057,http://foodlinkny.org,11:30am-12:45pm,Year-round,YR,Y,Y,N,Y,43.14139,-77.64044,POINT (-77.64044 43.14139)
Monroe,Curbside Market-OACES Family Learning Ctr,30 Hart Street Rochester,30 Hart Street,Rochester,NY,14605,Mitch Gruber,5853283380,http://www.foodlinkny.org,Thu 2:30pm-3:15pm,Year-round,YR,Y,Y,N,Y,43.17112,-77.61814,POINT (-77.61814 43.17112)
Monroe,Curbside Market-Phillips Village,100 Krieger Rd Webster,100 Krieger Rd.,Webster,NY,14580,Matthew Reifsteck,5854134057,http://www.foodlinkny.org,Sat 2:30-3:30pm,Year-round,YR,Y,Y,N,Y,43.20943,-77.4189,POINT (-77.4189 43.20943)
Monroe,Curbside Market-Pines of Perinton,2 White Pine Circle,2 White Pine Circle,Rochester,NY,14450,Matthew Reifsteck,5854134057,http://foodlinkny.org,11:30am-12:15pm,Year-round,YR,Y,Y,N,Y,43.10886,-77.44782,POINT (-77.44782 43.10886)
Monroe,Curbside Market-Pinnacle Place Apartments,919 S Clinton Ave Rochester,919 South Clinton Ave,Rochester,NY,14620,Matthew Reifsteck,5854134057,http://www.foodlinkny.org,Wed 10:30am-11:45am,Year-round,YR,Y,Y,N,Y,43.14006,-77.59637,POINT (-77.59637 43.14006)
Monroe,Curbside Market-Plymouth Gardens,1400 S Plymouth Ave Rochester,1400 S Plymouth Ave.,Rochester,NY,14611,Matthew Reifsteck,5854134057,http://www.foodlinkny.org,Fri 11:30am-12:45pm,Year-round,YR,Y,Y,N,Y,43.13192,-77.6339,POINT (-77.6339 43.13192)
Monroe,Curbside Market-Rochester Highlands,47 Green Knolls Dr                              across from dog park,47 Green Knolls Dr,Rochester,NY,14620,Matthew Reifsteck,5854134057,http://www.foodlinkny.org/CurbsideMarket,Fri 3:30pm-4:30pm,Year-round,YR,Y,Y,N,Y,43.11568,-77.61362,POINT (-77.61362 43.11568)
Monroe,Curbside Market-Rochester View Apartments,4365 W Henrietta Rd Henrietta,4365 W Henrietta Road,Henrietta,NY,14467,Matthew Reifsteck,5854134057,http://www.foodlinkny.org,Wed 3:15pm-4pm,Year-round,YR,Y,Y,N,Y,43.06563,-77.64833,POINT (-77.64833 43.06563)
Monroe,Curbside Market-Seneca Towers,200 Seth Green Dr,200 Seth Green St,Rochester,NY,14621,Matthew Reifsteck,5854134057,http://www.foodlinkny.org,Tue 11:45am-12:45pm,Year-round,YR,Y,Y,N,Y,43.1904,-77.61943,POINT (-77.61943 43.1904)
Monroe,Curbside Market-Skyview Park Apts,200 Skyview Park Ctr,200 Skyview Park Ctr,Rochester,NY,14622,Matthew Reifsteck,5854134057,http://foodlinkny.org,Tue 3:30pm-4:30pm,Year-round,YR,Y,Y,N,Y,43.1997,-77.56908,POINT (-77.56908 43.1997)
Monroe,Curbside Market-St. Ann's Adult Day Center,1500 Portland Ave. Rochester,1500 Portland Avenue,Rochester,NY,14621,Matthew Reifsteck,5854134057,http://www.foodlinkny.org,Tue 10:30am-11:30am,Year-round,YR,Y,Y,N,Y,43.19411,-77.5813,POINT (-77.5813 43.19411)
Monroe,Curbside Market-St. Bernard Park Apts,2260 Lake Ave. Rochester,2260 Lake Ave.,Rochester,NY,14612,Matthew Reifsteck,5854134057,http://www.foodlinkny.org,Fri  3:45pm-4:45pm,Year-round,YR,Y,Y,N,Y,43.20764,-77.62947,POINT (-77.62947 43.20764)
Monroe,Curbside Market-St. Jude Apts,4075 Lyell Rd. Rochester,4075 Lyell Rd Rochester NY 14606,Rochester,NY,14606,Matthew Reifsteck,5854134057,http://www.foodlinkny.org,Mon 2:45pm-3:15pm,Year-round,YR,Y,Y,N,Y,43.163475,-77.736702,POINT (-77.736702 43.163475)
Monroe,Curbside Market-St. Jude Apts II,4099 Lyell Rd,4099 Lyell Rd,Rochester,NY,14606,Matthew Reifsteck,5854134057,http://foodlinkny.org,Mon 3:15pm-3:45pm,Year-round,YR,Y,Y,N,Y,43.16362,-77.73767,POINT (-77.73767 43.16362)
Monroe,Curbside Market-The Hamilton Apts,185 Mt. Hope Ave Rochester,185 Mount Hope Avenue,Rochester,NY,14620,Matthew Reifsteck,5854134057,http://www.foodlinkny.org,Sat 10:30am-11:45am,Year-round,YR,Y,Y,N,Y,43.14573,-77.61013,POINT (-77.61013 43.14573)
Monroe,Curbside Market-Thurston Road YMCA,597 Thurston Rd Rochester,597 Thurston Rd,Rochester,NY,14619,Matthew Reifsteck,5854134057,http://www.foodlinkny.org,Wed 10:30am-11:15am,Year-round,YR,Y,Y,N,Y,43.132866,-77.651137,POINT (-77.651137 43.132866)
Monroe,Curbside Market-Trillium Health,259 Monroe Ave                                 Parking Monroe Ave + Union St corner,259 Monroe,Rochester,NY,14607,Matthew Reifsteck,5854134057,http://www.foodlinkny.org,Mon 2pm-2:45pm,Year-round,YR,Y,Y,N,Y,43.14959,-77.59906,POINT (-77.59906 43.14959)
Monroe,Curbside Market-Unity @ St. Mary's,89 Genesee St. Rochester,89 Genesee Street,Rochester,NY,14611,Matthew Reifsteck,5854134057,http://www.foodlinkny.org,Wed 2pm-2:45pm,Year-round,YR,Y,Y,N,Y,43.14844,-77.63718,POINT (-77.63718 43.14844)
Monroe,Curbside Market-Upper Falls Square Apts,"Merrimac Street Parking Lot, 396 Hudson Ave Rochester",396 Hudson Ave,Rochester,NY,14604,Matthew Reifsteck,5854134057,http://www.foodlinkny.org,Wed 10:45am-11:30am,Year-round,YR,Y,Y,N,Y,43.17109,-77.60063,POINT (-77.60063 43.17109)
Monroe,Curbside Market-Venture PROS,975 Elmwood Ave. Rochester,975 Elmwood Ave.,Rochester,NY,14620,Matthew Reifsteck,5854134057,http://www.foodlinkny.org,Fri 11:30am-12:15pm,Year-round,YR,Y,Y,N,Y,43.12489,-77.6126,POINT (-77.6126 43.12489)
Monroe,Curbside Market-VOC Liberty Landing Apts,185 Scio St,185 Scio St,Rochester,NY,14605,Matthew Reifsteck,5854134057,http://foodlinkny.org,Thu 2:15-3pm,Year-round,YR,Y,Y,N,Y,43.16041,-77.59841,POINT (-77.59841 43.16041)
Monroe,Curbside Market-Warfield Square,1337 E. Main St.,1337 E. Main St.,Rochester,NY,14609,Matthew Reifsteck,5854134057,http://foodlinkny.org,Wed 3:15pm-4:15pm,Year-round,YR,Y,Y,N,Y,43.16084,-77.5761,POINT (-77.5761 43.16084)
Monroe,Curbside Market-William Warfield Comm Ctr,100 William Warfield Drive,100 William Warfield Drive,Rochester,NY,14605,Matthew Reifsteck,5854134057,http://www.foodlinkny.org,Sat 12:15pm-1pm,Year-round,YR,Y,Y,N,Y,43.17121,-77.61008,POINT (-77.61008 43.17121)
Monroe,Curbside Market-Winton Gardens Towers,"2052 E Main St Rochester, Parking lot off Cedarwood Terrace",2052 East Main St,Rochester,NY,14609,Matthew Reifsteck,5854134057,http://www.foodlinkny.org,Tue 2:30pm-3:30pm,Year-round,YR,Y,Y,N,Y,43.16076,-77.55556,POINT (-77.55556 43.16076)
Monroe,Curbside Market-YWCA Apartments,175 N. Clinton Ave Rochester,175 North Clinton Ave,Rochester,NY,14604,Matthew Reifsteck,5854134057,http://www.foodlinkny.org,Thu 3:15pm-4:30pm,Year-round,YR,Y,Y,N,Y,43.16073,-77.6082,POINT (-77.6082 43.16073)
Monroe,Fairport Farmers' Market,58 S Main St parking lot,58 South Main St,Fairport,NY,14450,Ali Lawrence,5854208551,,Sat 7am-12pm,May 4-November 16,P/M,Y,N,N,Y,43.09992,-77.44214,POINT (-77.44214 43.09992)
Monroe,Greece Ridge Mall Sat Farmers' Market,271 Greece Ridge Center Drive  Rochester,271 Greece Ridge Center Drive,Rochester,NY,14626,Bill Judkins,5858510622,http://www.themallatgreeceridge.com,Sat 8am-2pm,June 1-October 26,M,Y,N,N,Y,43.20677,-77.69406,POINT (-77.69406 43.20677)
Monroe,Greece Ridge Mall Thu Farmers' Market,271 Greece Ridge Center Drive Rochester,271 Greece Ridge Center Drive,Rochester,NY,14626,Bill Judkins,5858510622,http://www.themallatgreeceridge.com,Thu 8am-2pm,June 6-October 24,M,Y,N,N,Y,43.20677,-77.69406,POINT (-77.69406 43.20677)
Monroe,Partyka Farms Farm Stand,1420 County Line Rd Kendall,1420 County Line Rd.,Kendall,NY,14470,Lora Partyka,5857520258,http://www.partykafarms.com,"Daily  9am-9pm, Winter hrs 9am-6pm",Year-round,YR,N,N,N,Y,43.29811,-77.99549,POINT (-77.99549 43.29811)
Monroe,Rochester Public Market -Thursday,280 N. Union St. off East Main St.,280 North Union St.,Rochester,NY,14609,Cindy De Coste,5854286907,http://www.cityofrochester.gov/publicmarket,Thu 6am-1pm,Year-round,YR,Y,Y,Y,Y,43.1657,-77.59016,POINT (-77.59016 43.1657)
Monroe,Rochester Public Market -Tuesday,280 N. Union St. off East Main St.,280 North Union St.,Rochester,NY,14609,Cindy De Coste,5854286907,http://www.cityofrochester.gov/publicmarket,Tue 6am-1pm,Year-round,YR,Y,Y,Y,Y,43.1657,-77.59016,POINT (-77.59016 43.1657)
Monroe,Rochester Public Market-Saturday,280 N. Union St. off East Main St.,280 North Union St.,Rochester,NY,14609,Cindy De Coste,5854286907,http://www.cityofrochester.gov/publicmarket,Sat 5am-3pm,Year-round,YR,Y,Y,Y,Y,43.1657,-77.59016,POINT (-77.59016 43.1657)
Monroe,Webster's Joe Obbie Farmers' Market,Webster Town Center 1034 Ridge Rd,1028 Ridge Road,Webster,NY,14580,Jason Bliek,5852611533,http://www.webstersjoeobbiefarmersmarketinc.org,Sat 8:30-1pm,June 8-October 26,M,Y,N,N,Y,43.20964,-77.45416,POINT (-77.45416 43.20964)
Monroe,Westside Farmers' Market,"St. Monica's Church parking lot, 831 Genesee St. Rochester",831 Genesee St,Rochester,NY,14611,Jessica DiSalvo,5854368999,http://www.westsidemarketrochester.com,Tue 4pm-7pm,June 4-October 8,M,Y,Y,Y,Y,43.134058,-77.636523,POINT (-77.636523 43.134058)
Montgomery,Bellinger's Orchard Farm Stand,685 Argersinger Rd Fultonville,685 Argersinger Rd,Fultonille,NY,12072,Linda Coyne,5189228555,http://www.bellingersorchard.com,Daily 9am-5pm,September 1-November 27,M,Y,N,N,Y,42.90293,-74.39306,POINT (-74.39306 42.90293)
Montgomery,Canajoharie Farmers' Market,24 Church St Wagner Square Pkg lot,24 Church Street,Canajoharie,NY,13317,Chad Myers,5186187757,,Sun 11am-2pm,May 19-October 27,P/M,Y,N,N,Y,42.90515,-74.57222,POINT (-74.57222 42.90515)
Montgomery,Damin Farm Stand,8075 State Highway 5 St. Johnsville,8075 State Highway 5,St. Johnsville,NY,13452,Barb Damin,5185682643,,Daily 9am-6pm,Year-round,YR,N,N,N,Y,43.00497,-74.72233,POINT (-74.72233 43.00497)
Montgomery,Haven of Hope Farm Stand,19 Cemetery St. Fonda,19 Cemetery Street,Fonda,NY,12068,Pat Brooking,5185223342,http://www.havenofhopefarm.org,Thu-Sat 9am-4pm,Year-round,YR,N,N,N,Y,42.95627,-74.36841,POINT (-74.36841 42.95627)
Montgomery,Tylutki Family Farms Farm Stand,197 Caswell Rd Palatine Bridge,197 Caswell Rd,Palatine Bridge,NY,13428,Raymond Tylutki,5188487459,,Daily 7am-8pm,Year-round,YR,Y,N,N,Y,42.91442,-74.53936,POINT (-74.53936 42.91442)
Nassau,Belmont Park Farm Stand at Anna House,"2150 Hempstead Tpke Elmont, Gate 6 driveway",2150 Hempstead Turnpike,Elmont,NY,11003,Eleanor Poppe,5162165196,http://www.rtcany.org,Tue 10am-2pm,June 25-October 22,M,Y,N,N,Y,40.70922,-73.7216,POINT (-73.7216 40.70922)
Nassau,CCE Nassau Eisenhower Pk Farmers' Market,"Parking Field 8 Eisenhower Park, East Meadow",Stewart @ Merrick Ave.,East Meadow,NY,11554,Gregory Sandor,5168322591,http://ccenassau.org,Sat 9am-12pm,July 6-October 26,M,Y,N,N,Y,40.73687,-73.58301,POINT (-73.58301 40.73687)
Nassau,Cedarmore Farmers Market-Baldwin LIRR,Baldwin LIRR Station Parking Lot #BA 12,Lot #BA12 Sunrise Hwy,Baldwin,NY,115510,Dr. Sheila Maxwell,6784719012,,Sat 10:30am-2:30pm,July 20-October 19,M,Y,Y,N,Y,40.6566,-73.6221,POINT (-73.6221 40.6566)
Nassau,Country Fresh Farmingdale Farmers' Market,Village Green 361 Main St,361 Main St,Farmingdale,NY,11735,Mary Schneider,6316735844,,Sun 10am-2pm,June 2-November 24,M,Y,N,N,Y,40.73166,-73.44566,POINT (-73.44566 40.73166)
Nassau,Deep Roots Farmers' Market,100 Garvies Point Rd Glen Cove,100 Garvies Point Rd,Glen Cove,NY,11542,Amy Peters,5163185487,,Sat 9am-1pm,June 1-October 26,M,Y,N,N,Y,40.85889,-73.64328,POINT (-73.64328 40.85889)
Nassau,East Meadow Farm Stand,832 Merrick Ave,832 Merrick Avenue,East Meadow,NY,11554,Jane Kraus,5168322591,http://cce.nassau.org,Wed 11am-2pm,June 26-October 30,M,Y,Y,N,Y,40.70092,-73.56747,POINT (-73.56747 40.70092)
Nassau,Kennedy Plaza Long Beach Farmers' Market -Wed,1 W Chester St Long Beach,1 West Chester St,Long Beach,NY,11561,Bernadette Martin,6316785227,http://www.ligreenmarket.org,Wed 9am-2pm,May 1-November 27,P/M,Y,N,N,Y,40.58943,-73.66592,POINT (-73.66592 40.58943)
Nassau,Kennedy Plaza Long Beach Farmers' Market-Sat,"1 W Chester St Long Beach, Corner of National Blvd and Park Ave",1 West Chester St,Long Beach,NY,11561,Bernadette Martin,6316785227,http://www.ligreenmarket.org,Sat 9am-2pm,May 1-November 27,P/M,Y,N,N,Y,40.58943,-73.66592,POINT (-73.66592 40.58943)
Nassau,Long Island Growers Market,Clinton G Martin Park New Hyde Park,Clinton G Martin Park,New Hyde Park,NY,11040,Ethel Terry,6314668939,http://longislandgrowersmarket.com,Fri 7am-1pm,June 7-November 24,M,Y,N,N,Y,40.75601,-73.687,POINT (-73.687 40.75601)
Nassau,Port Washington Organic Farmers' Market,"Port Washington Town Dock , 343-355 Main St",347 Main St.,Port Washington,NY,11050,Patti Wood,5168830887,https://www.pwfarmersmarket.org/,Sat 8am-12pm,June 8-October 26,M,Y,N,N,Y,40.83153,-73.7019,POINT (-73.7019 40.83153)
Nassau,Rockville Centre Farmers' Market,"Sunrise Hwy & North Longbeach Rd , Village of Rockville Centre",Sunrise Hwy and Long Beach Rd,Rockville Centre,NY,11570,Ethel Terry,6314668939,http://www.longislandgrowersmarket.com,Sun 7am-12pm,June 2-December 29,M/X,Y,N,N,Y,40.65712,-73.6321,POINT (-73.6321 40.65712)
Nassau,Roslyn Farmers' Market,"Christopher Morley Park , 500 Searingtown Rd",500 Searingtown Rd,Roslyn Heights,NY,11577,Ethel Terry,6314668939,http://www.longislandgrowersmarket.com,Wed 7am-1pm,May 29-December 18,M/X,Y,N,N,Y,40.78188,-73.66277,POINT (-73.66277 40.78188)
Nassau,Seaford Farmers' Market,"Seaford LIRR Railroad Station lot 3, Sunrise Highway & Washington Ave",Sunrise Highway and Washington St.,Seaford,NY,11783,Ethel Terry,6314668939,http://www.longislandgrowersmarket.com,Sat 7am-12pm,June 1-November 23,M,Y,N,N,Y,40.67572,-73.48657,POINT (-73.48657 40.67572)
Nassau,The Napolitano Family Farm Stand,"3434 Hempstead Tkpe Levittown, at Good Shepard Church",3434 Hempstead Turnpike,Levittown,NY,11756,Daniel Napolitano,6462834682,http://www.napolitanofamilyfarm.com,Sat 9am-1pm,June 22-November 2,M,Y,N,N,Y,40.72556,-73.50916,POINT (-73.50916 40.72556)
New York,175th Street Greenmarket,W 175th St btwn Wadsworth & Broadway,651 West 175th St and Broadway,New York,NY,10038,Iliana Garcia,2127887900,http://www.grownyc.org/greenmarket,Thu 8am-4pm,June 27-November 21,M,Y,Y,N,Y,40.84622,-73.93847,POINT (-73.93847 40.84622)
New York,57th Street Saturday Greenmarket,10th Ave & 57th St,475 West 57th Street,New York,NY,10019,Iliana Garcia,2127887900,http://www.grownyc.org/greenmarket,Sat 8am-3pm,June 1-November 23,M,N,Y,N,Y,40.76914,-73.9882,POINT (-73.9882 40.76914)
New York,79th Street Greenmarket,79th St & Columbus Ave,366 Columbus Ave,New York,NY,10024,Iliana Garcia,2127887900,http://www.grownyc.org/greenmarket/manhattan/79th-street,Sun 9am-4pm,Year-Round,YR,Y,Y,N,Y,40.7809,-73.97648,POINT (-73.97648 40.7809)
New York,82nd Street Greenmarket,82nd St btwn 1st & York Aves,408 East 82nd Street,New York,NY,10128,Iliana Garcia,2127887900,http://www.grownyc.org/greenmarket/manhattan/82nd-street,Sat 9am-2:30pm,Year-round,YR,Y,Y,N,Y,40.77394,-73.9506,POINT (-73.9506 40.77394)
New York,92nd Street Greenmarket,92nd St & 1st Ave,East 94nd St and First Ave,New York,NY,10128,Iliana Garcia,2127887900,http://www.grownyc.org/greenmarket,Sun 9am-4pm,June 23-November 24,M,Y,Y,N,Y,40.78196,-73.94568,POINT (-73.94568 40.78196)
New York,97th Street Greenmarket,97th St btwn Amsterdam & Columbus Aves,West 97th St and Columbus Ave,New York,NY,10025,Iliana Garcia,2127887900,http://www.grownyc.org/greenmarket/manhattan/west-97,Fri 8am-2pm,Year-round,YR,Y,Y,N,Y,40.79356,-73.96701,POINT (-73.96701 40.79356)
New York,Abingdon Square Greenmarket,Hudson St & W 12th St,601 Hudson St,New York,NY,10014,Iliana Garcia,2127887900,http://www.grownyc.org/greenmarket/manhattan/abingdon-square,Sat 8am-2pm,Year-round,YR,Y,Y,N,Y,40.73719,-74.00592,POINT (-74.00592 40.73719)
New York,Astor Place Greenmarket,E 8th St & Lafayette,149-179 E 8th St,New York,NY,11218,Iliana Garcia,2127887900,https://www.grownyc.org,Tue 8am-5pm,June 4-November 26,M,Y,Y,N,Y,40.64658,-73.97198,POINT (-73.97198 40.64658)
New York,Bowling Green Thursday Greenmarket,Broadway @ Battery Place,1 Bowling Green,New York,NY,10004,Iliana Garcia,2127887900,http://www.grownyc.org/greenmarket,Thu 8am-2pm,April 16-November 26,P/M/X,Y,Y,N,Y,40.70445,-74.01423,POINT (-74.01423 40.70445)
New York,Bowling Green Tuesday Greenmarket,Broadway @ Battery Place,1 Bowling Green,New York,NY,10004,Iliana Garcia,2127887900,http://www.grownyc.org/greenmarket/manhattan/bowling-green-tu,Tue 8am-2pm,April 16-November 26,P/M,Y,Y,N,Y,40.70454,-74.01418,POINT (-74.01418 40.70454)
New York,Bro/Sis Green Youth Market,140 Hamilton Place,140 Hamilton Place,Manhattan,NY,10031,Wendy Flores,2122837044,http://brotherhood-sistersol.org/programs/environmental-program,Wed 10:30am-6pm,May 17-November 22,P/M,Y,Y,N,Y,40.82428,-73.94881,POINT (-73.94881 40.82428)
New York,Chelsea Farmers' Market,383 W 23rd St.,383 W 23rd Street,New York,NY,10011,Dacotah Rousseau,9149234837,http://www.downtoearthmarkets.com,Sun 9am-2pm,May 20-December 21,P/M/X,Y,Y,N,Y,40.74633,-74.00081,POINT (-74.00081 40.74633)
New York,Children's Aid-Milbank Center,14-32 W 118th St New York,14-32 West 118th Street,New York,NY,10026,Giovanna Bernal,6466304515,http://childrensaidnyc.org,Wed 2:30pm-5:30pm,June 5-November 6,M,Y,Y,N,Y,40.80252,-73.94705,POINT (-73.94705 40.80252)
New York,Children's Aid-PS 178 Professor Juan BoschSchool,12-18 Elwood Street New York,12-18 Elwood Street,New York,NY,10040,Giovanna Bernal,6466304515,http://childrensaidnyc.org,Tue 2:30pm-5pm,June 4-November 5,M,Y,Y,N,Y,40.85933,-73.92798,POINT (-73.92798 40.85933)
New York,Columbia Sun Greenmarket,Broadway & 114th St,2910 Broadway,New York,NY,10027,Iliana Garcia,2127887900,http://www.grownyc.org/greenmarket,Sun 8am-4pm,Year-round,YR,Y,Y,N,Y,40.80649,-73.96469,POINT (-73.96469 40.80649)
New York,Columbia Thu Greenmarket,Broadway & 114th St,2910 Broadway,New York,NY,10027,Iliana Garcia,2127887900,http://www.grownyc.org/greenmarket/manhattan/columbia-th,Thu 8am-4pm,Year-round,YR,Y,Y,N,Y,40.80649,-73.96469,POINT (-73.96469 40.80649)
New York,Dag Hammarskjold Plaza Greenmarket,47th St & 2nd Ave,245 East 47th Street,New York,NY,10017,Iliana Garcia,2127887900,http://www.grownyc.org/greenmarket/manhattan/dag-hammarskjold,Wed 8am-3pm,Year-round,YR,Y,Y,N,Y,40.75333,-73.97027,POINT (-73.97027 40.75333)
New York,Domino Park Greenmarket,15 River St Brooklyn                              btwn S 1st and S 3rd St,15 River St,Brooklyn,NY,11211,Iliana Garcia,2127887900,https://www.grownyc.org,Sun 9am-3pm,June 16-November 24,M,Y,N,N,Y,40.71655,-73.96656,POINT (-73.96656 40.71655)
New York,Fort Washington Greenmarket,168th St & Fort Washington Ave,701 West 168th Street,New York,NY,10032,Iliana Garcia,2127887900,http://www.grownyc.org/greenmarket,Tue 8am-4pm,June 4-November 26,M,Y,Y,N,Y,40.84246,-73.94245,POINT (-73.94245 40.84246)
New York,Gouverneur Health GrowNYC Farm Stand,Madison St btwn Clinton & Jefferson Sts,227 Madison Street,New York,NY,10002,Meredith Clark,,https://www.grownyc.org/farmstands,Fri 8:30am-2pm,July 5-November 22,M,Y,Y,N,Y,40.71321,-73.98779,POINT (-73.98779 40.71321)
New York,Harvest Home East Harlem Farmers' Market,E 104th St. & Third Ave.,East 104th St and Third Ave,New York,NY,10029,Perla Vazquez,2128283361,http://www.harvesthomefm.org,Thu 8am-3pm,June 13-November 14,M,Y,Y,N,Y,40.79024,-73.94564,POINT (-73.94564 40.79024)
New York,Harvest Home Harlem Hospital Farmers' Market,"506 Lenox Ave. , Btwn W 136th & W 137th Sts.",137th Street and Lennox Avenue,New York,NY,10037,Perla Vazquez,2128283361,http://www.harvesthomefm.org,Fri 8am-3pm,June 14-November 15,M,Y,Y,N,Y,40.81539,-73.93985,POINT (-73.93985 40.81539)
New York,Harvest Home Lenox Ave. Farmers' Market,"Lenox Ave. btwn W 117th & W 118th Sts, New York",150 Lenox Avenue,New York,NY,10027,Perla Vazquez,2128283361,http://www.harvesthomefm.org,Sat 8am-3pm,June 22-November 16,M,Y,Y,N,Y,40.80295,-73.9489,POINT (-73.9489 40.80295)
New York,Harvest Home Metropolitan Farmers' Market,2nd Ave btwn East 97th & E99th Sts,2nd Ave. at East 99th St.,New York,NY,10029,Perla Vazquez,2128283361,http://www.harvesthomefm.org,Fri 8am-3pm,June 14-November 15,M,Y,Y,N,Y,40.78553,-73.94615,POINT (-73.94615 40.78553)
New York,Inwood Greenmarket,Isham St btwn Seaman & Cooper,620 Isham Street,New York,NY,10034,Iliana Garcia,2127887900,http://www.grownyc.org/greenmarket/manhattan/inwood,Sat 8am-3pm,Year-round,YR,Y,Y,N,Y,40.86925,-73.92066,POINT (-73.92066 40.86925)
New York,Lenox Hill GrowNYC Farmstand,70th St & 1st Ave,70th St & 1st Ave,New York,NY,10021,Meredith Clark,,https://www.grownyc.org/farmstands,Thu 12pm-5pm,Year-round,YR,Y,N,N,Y,40.76653,-73.95698,POINT (-73.95698 40.76653)
New York,Lower East Side GrowNYC Farm Stand,Grand St btwn Pitt & Willett Sts,Grand St and Pitt St,New York,NY,10002,Meredith Clark,,https://www.grownyc.org/farmstands,Fri 9am-1:30pm,July 5-November 22,M,Y,Y,N,Y,40.71523,-73.9843,POINT (-73.9843 40.71523)
New York,Morningside Park Farmers' Market,237 Manhattan Ave New York,237 Manhattan Ave.,New York,NY,10025,Dacotah Rousseau,9149234837,http://www.downtoearthmarkets.com,Sat 9am-2pm,Year-round,YR,Y,Y,N,Y,40.80173,-73.95915,POINT (-73.95915 40.80173)
New York,Mount Sinai Hospital Greenmarket,Madison Ave & 99th St,1425 Madison Avenue,New York,NY,10029,Iliana Garcia,2127887900,http://www.grownyc.org/greenmarket,Wed 8am-3pm,June 19-November 27,M,Y,Y,N,Y,40.78874,-73.95276,POINT (-73.95276 40.78874)
New York,Oculus Plaza Greenmarket,"Oculus Plaza, Church St & Fulton St",185 Greenwich St,New York,NY,10007,Iliana Garcia,2127887900,http://www.grownyc.org/greenmarket,Tue 8am-5pm,June 4-October 29,M,Y,Y,N,Y,40.71203,-74.01201,POINT (-74.01201 40.71203)
New York,PS 57  GrowNYC Farm Stand,115th St and 3rd Ave,115th St. and 3rd Ave,New York,NY,10029,Meredith Clark,,https://www.grownyc.org/farmstands,Thu 10am-3pm,Year-round,YR,Y,Y,N,Y,40.79727,-73.94051,POINT (-73.94051 40.79727)
New York,Stuyvesant Town Greenmarket,"North end of town oval, near 20th St loop",East 14th Street Loop,New York,NY,10009,Iliana Garcia,2127887900,http://www.grownyc.org/greenmarket,Sun 9:30am-4pm,May 12-December 15,P/M/X,Y,Y,N,Y,40.72998,-73.97935,POINT (-73.97935 40.72998)
New York,Tompkins Square Greenmarket,Ave A & 7th St,111 Avenue A,New York,NY,10009,Iliana Garcia,2127887900,http://www.grownyc.org/greenmarket/manhattan/tompkins-square,Sun 9am-4pm,Year-round,YR,Y,Y,N,Y,40.72621,-73.9836,POINT (-73.9836 40.72621)
New York,Tribeca Greenmarket Saturday,Greenwich St & Chambers St,315 Greenwich St,New York,NY,10023,Iliana Garcia,2127887900,http://www.grownyc.org/greenmarket/manhattan/tribeca-sa,Sat 8am-2pm,Year-round,YR,Y,Y,N,Y,40.71697,-74.01062,POINT (-74.01062 40.71697)
New York,Tribeca Greenmarket Wednesday,Greenwich St & Chambers St,315 Greenwich St,New York,NY,10023,Iliana Garcia,2127887900,http://www.grownyc.org/greenmarket,Wed 8am-2pm,April 3-November 27,P/M,Y,Y,N,Y,40.71697,-74.01062,POINT (-74.01062 40.71697)
New York,Tucker Square Saturday Greenmarket,66th St & Broadway,125 Columbus Ave,New York,NY,10023,Iliana Garcia,2127887900,http://www.grownyc.org/greenmarket/manhattan/tuckerthursday,Sat 8am-4pm,Year-round,YR,Y,Y,N,Y,40.7731,-73.98171,POINT (-73.98171 40.7731)
New York,Tucker Square Thursday Greenmarket,66th St & Broadway,125 Columbus Avenue,New York,NY,10023,Iliana Garcia,2127887900,http://www.grownyc.org/greenmarket,Thu 8am-3pm,Year-round,YR,Y,Y,N,Y,40.7731,-73.98171,POINT (-73.98171 40.7731)
New York,Union Square Friday Greenmarket,"31 Union Square W, NW side of Park",31 Union Square West,New York,NY,10003,Iliana Garcia,2127887900,https://www.grownyc.org/greenmarket,Fri 8am-6pm,Year-round,YR,Y,Y,N,Y,40.73669,-73.99079,POINT (-73.99079 40.73669)
New York,Union Square Monday Greenmarket,"31 Union Square W, NW side of Park",31 Union Square West,New York,NY,10003,Iliana Garcia,2127887900,https://www.grownyc.org/greenmarket/manhattan-union-square-w,Mon 8am-6pm,Year-round,YR,Y,Y,N,Y,40.73669,-73.99079,POINT (-73.99079 40.73669)
New York,Union Square Saturday Greenmarket,"31 Union Square W , NW side of Park",31 Union Square West,New York,NY,10003,Iliana Garcia,2127887900,https://www.grownyc.org/greenmarket,Sat 8am-6pm,Year-round,YR,Y,Y,N,Y,40.73669,-73.99079,POINT (-73.99079 40.73669)
New York,Union Square Wednesday Greenmarket,Union Square W & 17th St,31 Union Square West,New York,NY,10003,Iliana Garcia,2127887900,https://www.grownyc.org/greenmarket,Wed 8am-6pm,Year-round,YR,Y,Y,N,Y,40.73669,-73.99079,POINT (-73.99079 40.73669)
New York,Uptown Good Food Farm Stand,330 St. Nicholas Ave,330 St. Nicholas Ave,New York,NY,10027,Judith Desire,3473917189,,Thu 3pm-7pm,June 6-October 31,M,Y,Y,N,Y,40.81176,-73.95167,POINT (-73.95167 40.81176)
New York,Uptown Good Food Farmers' Market,St. Nicholas Ave & West 137th St,St. Nicholas Ave & West 137th St,New York,NY,10032,Judith Desire,3473917189,,Sat 9am-3pm,June 1-November 23,M,Y,Y,N,Y,40.81856,-73.94745,POINT (-73.94745 40.81856)
New York,Uptown Grand Central GrowNYC Farmstand,125th Street & Park Ave,125th Street and Park Ave,New York,NY,10035,Meredith Clark,,https://www.grownyc.org/farmstands,Wed 1:30pm-7pm,Year-round,YR,Y,N,N,Y,40.80513,-73.93921,POINT (-73.93921 40.80513)
Niagara,Human Farms and Greenhouse Farm Stand,2853 Hess Rd Appleton,2853 Hess Rd,Appleton,NY,14008,Ronald Human,7165312820,,"Daily 10am-6pm, Nov 1-Dec 31 12pm-5pm",Year-round,YR,Y,Y,N,Y,43.27537,-78.64954,POINT (-78.64954 43.27537)
Niagara,Huntington Farm Stand I,9715 Ridge Rd. Middleport,9715 Ridge Rd.,Middleport,NY,14105,Dan Huntington,7163930590,,Daily 10am-6pm,June 1-October 14,M,Y,N,N,Y,43.24672,-78.48848,POINT (-78.48848 43.24672)
Niagara,Lockport Community Farmers' Market,69 Canal Street,69 Canal Street,Lockport,NY,14094,Grace Platt,7164340212,http://www.lockportcommunitymarket.com,"Wed 3pm-7pm, Sat 10am-2pm",July 3-September 25,M,Y,Y,Y,Y,43.17085,-78.6939,POINT (-78.6939 43.17085)
Niagara,Lockport Community WINTER Farmers' Market,210 Walnut St,210 Walnut Street,Lockport,NY,14094,Grace Platt,7164340212,http://www.lockportcommunitymarket.com,1st & 3rd Sat 10am-2pm,"November 2-May 11, 2025",M/X/W/P,N,Y,N,Y,43.16958,-78.68743,POINT (-78.68743 43.16958)
Niagara,Newfane Methodist Farmers' Market,2699 Main St. Newfane,2699 Main St.,Newfane,NY,14108,Amy Luckman,7167787011,,Wed  4:30pm-7pm,June 26-September 25,M,Y,N,N,Y,43.28365,-78.70879,POINT (-78.70879 43.28365)
Niagara,North Tonawanda City Sat Farmers' Market,Robinson Rd and Payne Ave,310 Robinson Road,North Tonawanda,NY,14120,Chris Del Prince,7166958000,,Sat 7am-1pm,Year-round,YR,N,Y,N,Y,43.03377,-78.87021,POINT (-78.87021 43.03377)
Niagara,North Tonawanda City Thurs Farmers' Market,Robinson Rd and Payne Ave,310 Robinson Road,North Tonawanda,NY,14120,Chris Del Prince,7166958000,,Thu 7am-1pm,Year-round,YR,N,Y,N,Y,43.03377,-78.87021,POINT (-78.87021 43.03377)
Niagara,North Tonawanda City Tue Farmers' Market,Robinson Rd and Payne Ave,310 Robinson Road,North Tonawanda,NY,14120,Chris Del Prince,7166958000,,Tue 7am-1pm,Year-round,YR,N,Y,N,Y,43.03377,-78.87021,POINT (-78.87021 43.03377)
Niagara,Randy Becken Farm Stand,3302 Upper Mountain Rd Sanborn,3302 Upper Mountain Road,Sanborn,NY,14132,Randy Becken,7165458706,,"Wed-Sat 10am-6pm, Sun 10am-5pm",August 1-November 9,M,Y,N,N,Y,43.16543,-78.86239,POINT (-78.86239 43.16543)
Niagara,Schwab Farm Stand,9035 Rochester Rd Gasport,9035 Rochester Rd,Gasport,NY,14067,Carol Schaal,7167357570,http://www.schwabsfarm.com,"Mon-Fri 8am-7pm, Sat 8am-6pm  Sun 9am-5pm",Year-round,YR,N,Y,N,Y,43.20425,-78.52308,POINT (-78.52308 43.20425)
Oneida,Boonville Community Harvest Farmers' Market,"Erwin Park, 13054 State Rte 12",13149 State Rte 12,Boonville,NY,13309,Tammy Kelly,3155205565,,Fri 2pm-7pm,June 14-September 14,M,Y,Y,N,Y,43.48252,-75.32731,POINT (-75.32731 43.48252)
Oneida,Boonville Farmers' Market,13149 State Route 12,13149 State Route 12,Boonville,NY,13309,Patti McDaniel,3159425112,http://boonvillechamber.com,Thu 12pm-5pm,June 13-September 26,M,Y,Y,N,Y,43.47538,-75.31608,POINT (-75.31608 43.47538)
Oneida,Clinton Farmers' Market,Village Green 21 West Park Row,21 West Park Row,Clinton,NY,13323,Molly Marris,3158531735,http://www.clintonnychamber.org,Thu 10am-4pm,June 6-October 3,M,Y,Y,N,Y,43.04932,-75.37881,POINT (-75.37881 43.04932)
Oneida,Horn's Family Farm Stand,9629 Main St Remsen,9629 Main St,Remsen,NY,13438,Eric Horn,3158313541,http://hornsfamilyfarm.com,"Mon-Fri 12pm-6pm, Sat 9am-3pm",Year-round,YR,Y,Y,N,Y,43.32745,-75.18713,POINT (-75.18713 43.32745)
Oneida,Oneida County Public Market,"REA Wing Union Station, 321 Main St. Utica",321 Main Street,Utica,NY,13501,Elizabeth Irons,3157363394,http://www.oneidacountymarket.com,Sat 9am-1pm,Year-round,YR,Y,Y,N,Y,43.10393,-75.2239,POINT (-75.2239 43.10393)
Oneida,Utica Farmers' Market,1 Kennedy Plaza,1 Kennedy Plaza,Utica,NY,13501,Edita Rosic,3157920114,,Wed 8am-5pm,June 26-October 30,M,Y,Y,N,Y,43.10123,-75.23606,POINT (-75.23606 43.10123)
Oneida,Wagner Farms Farm Stand,5841 Old Oneida Rd Rome,5841 Old Oneida Rd,Rome,NY,13440,Ronald Wagner,3153395182,http://wagnerfarmsny.com,Daily 10am-6pm,Year-round,YR,N,N,N,Y,43.1805,-75.50086,POINT (-75.50086 43.1805)
Onondaga,Bayberry Plaza Farmers' Market,Kinney lot 7608 Oswego Rd Liverpool,7608 Oswego Rd,Liverpool,NY,13090,Kathy Parrotta,3156521463,http://www.bayberryplaza.com,Wed 8am-2pm,May 22-November 6,P/M,Y,N,N,Y,43.13779,-76.22602,POINT (-76.22602 43.13779)
Onondaga,Central NY Saturday Regional Market Authority,2100 Park St. Syracuse,2100 Park Street,Syracuse,NY,13208,Taylor Deats,3154228647,https://www.cnyregionalmarket.com/,Sat 7am-2pm,Year-round,YR,Y,Y,Y,Y,43.07269,-76.16835,POINT (-76.16835 43.07269)
Onondaga,Central NY Sunday Regional Market Authority,2100 Park St. Syracuse,2100 Park Street,Syracuse,NY,13208,Taylor Deats,3154228647,https://www.cnyregionalmarket.com/,Sun 7am-2pm,May 5-October 27,M,Y,Y,Y,Y,43.07269,-76.16835,POINT (-76.16835 43.07269)
Onondaga,Central NY Thursday Regional Market Authority,2100 Park St. Syracuse,2100 Park Street,Syracuse,NY,13208,Taylor Deats,3154228647,https://www.cnyregionalmarket.com/,Thu 7am-2pm,Year-round,YR,Y,Y,Y,Y,43.07269,-76.16835,POINT (-76.16835 43.07269)
Onondaga,Delaney Farms Farm Stand,4545 Kasson Rd.,4545 Kasson Rd.,Syracuse,NY,13215,JoAnn Delaney,3154691668,,Daily 9am-6pm,May-October,M,Y,N,N,Y,42.9876,-76.2609,POINT (-76.2609 42.9876)
Onondaga,Downtown Syracuse Farmers' Market,Clinton Square,Clinton St and Water St,Syracuse,NY,13202,Heather Schroeder,3154228284,http://www.downtownsyracuse.com,Tue 8am-2pm,June 11-October 8,M,Y,Y,N,Y,43.05054,-76.15354,POINT (-76.15354 43.05054)
Onondaga,Fayetteville Farmers' Market,Fayetteville Town Ctr 504 Burdick St.,504 Burdick Street,Fayetteville,NY,13066,Lacey Cashman,3013351434,http://www.fayettevillefarmersmarketcny.com,Thu 12pm-6pm,May 2-October 31,P/M,Y,N,N,Y,43.02764,-76.01608,POINT (-76.01608 43.02764)
Onondaga,Skaneateles Farmer's Market-Saturday,1 East Austin St. Austin Park Pavilion,1 East Austin Street,Pavilion,NY,13152,Sue Murphy,3157279320,https://www.townofskaneateles.com,Sat 9:30am-12:30pm,May 25-October 12,P/M,Y,Y,N,Y,42.95091,-76.43045,POINT (-76.43045 42.95091)
Onondaga,Skaneateles Farmers' Market-Thursday,1 East Austin St. Austin Park Pavilion,One E. Austin St,Skaneateles,NY,13152,Sue Murphy,3157279320,http://www.townofskaneateles.com,Thu 3pm-6pm,May 25-October 10,P/M,Y,Y,N,Y,42.95089,-76.4309,POINT (-76.4309 42.95089)
Onondaga,Syracuse Eastside Neighborhood Farmers' Market,"Westcott Community Ctr , 826 Euclid Ave",826 Euclid Ave,Syracuse,NY,13210,Jessica Ginney,3154788634,https://westcottcc.org/syracuse-eastside-farmers-market,Wed 2pm-6pm,June 5-October 25,M,Y,N,N,Y,43.03662,-76.1192,POINT (-76.1192 43.03662)
Ontario,Geneva Farmers Market,35 Lakefront Dr,35 Lakefront Dr,Geneva,NY,14456,Liz Toner,3158286588,http://www.downtowngeneva.org/farmers-market.html,Sat 8am-1:30 pm,May 25-October 12,P/M,Y,Y,Y,Y,42.8664,-76.98021,POINT (-76.98021 42.8664)
Ontario,Victor Farmers' Market,Village Hall Parking Lot 60 East Main St,60 East Main St,Victor,NY,14564,Roseanne Turner-Adams,5859243311,http://www.victorny.org,Wed 3pm-6pm,June 5-October 30,M,Y,N,N,Y,42.98236,-77.4088,POINT (-77.4088 42.98236)
Orange,Cornwall Farmers' Market,183 Main St,183 Main Street,Cornwall,NY,12518,Phylis Murphy,8455342070,,Wed 11am-5pm,May 22-October 30,P/M,Y,N,N,Y,41.438985,-74.028493,POINT (-74.028493 41.438985)
Orange,Florida NY Farmers' Market,Route 12 A & 94 across from Dollar Tree,133 N Main Street,Florida,NY,10921,Janet Picarelli,8456518310,http://www.floridafarmersmarket.org,Tue 10am-4pm,June 25-October 29,M,Y,Y,N,Y,41.33775,-74.35873,POINT (-74.35873 41.33775)
Orange,Healthy Orange Farmers' Market,"130 Broadway (lawn next to DMV bldg), btwn Johnston & Landers St. Newburgh",131 Broadway,Newburgh,NY,12550,Jeffrey Woody,8453606691,http://www.healthyorange.com,Tue 10am-2pm,June 18-October 29,M,Y,Y,N,Y,41.50009,-74.01254,POINT (-74.01254 41.50009)
Orange,Lakeside Greenwood Lake Farmers' Market,Winstanley Park on Windemere Ave,Winstanley Park on Windemere Avenue,Greenwood Lake,NY,10925,Karen Wintrow,8454779215,,Sat 9am-1pm,June 8-October 26,M,Y,N,N,Y,41.2235,-74.29337,POINT (-74.29337 41.2235)
Orange,Middletown Farmers' Market,Erie Way Park 1-31 Union St,1-31 Union St.,Middletown,NY,10940,Stephania Sande,8453438075,http://www.middletownbid.org,Sat 8am-1pm,June 1-October 19,M,Y,Y,N,Y,41.44814,-74.41459,POINT (-74.41459 41.44814)
Orange,Newburgh Farmers' Market,97 Broadway,95-107 Broadway,Newburgh,NY,12550,Illyana Campos,8452314424,http://www.newburghnyfarmersmarket.org,"Sat 10am-3pm, Winter hrs 10am-2pm",Year-round,YR,N,Y,N,Y,41.49992,-74.0112,POINT (-74.0112 41.49992)
Orange,Pine Bush Farmers' Market,62 Main St,New and Main Streets,Pine Bush,NY,12566,Ron Carter,8459780298,http://www.pinebushfarmersmarket.com,Sat 9am-1pm,May 25-November 23,P/M,Y,N,N,Y,41.60918,-74.3005,POINT (-74.3005 41.60918)
Orange,Port Jervis Farmers' Market,1 Hammond St,1 Hammond Street,Port Jervis,NY,12771,Arina Soler,8459782450,http://www.pjfarmmarket.com,Sat 10am-1pm,June 1-October 26,M,Y,Y,N,Y,41.37555,-74.69237,POINT (-74.69237 41.37555)
Orange,Soons Orchards Farm Stand,23 Soons Circle New Hampton,23 Soons Circle,New Hampton,NY,10958,Sharon Soons,8453745471,http://www.soonsorchards.com,Daily 9am-6pm,Year-round,YR,Y,N,N,Y,41.40258,-74.40356,POINT (-74.40356 41.40258)
Orange,Tuxedo Farmers' Market,"Tuxedo Train Station, 240 Rt. 17N",240 State Route 17,Tuxedo,NY,10987,Lorraine Barbarash,8453251278,http://www.tuxedofarmersmarket.com,Sat 9am-2pm,June 15-October 26,M,Y,N,N,Y,41.19423,-74.18448,POINT (-74.18448 41.19423)
Orleans,Canal Village Farmers' Market,127 West Center St. Medina,345 Main St.,Medina,NY,14103,Gail Miller,5857983904,,Sat 9am-2pm,June 1-October 26,M,Y,Y,Y,Y,43.22187,-78.38667,POINT (-78.38667 43.22187)
Orleans,Canal Village Winter Farmers' Market,345 North Main St.  Medina,345 North Main St,Medina,NY,14103,Gail Millard,3154089752,,Sat 9am-1pm,Nov 4-May 30,X/W/P,N,Y,Y,Y,43.22187,-78.38667,POINT (-78.38667 43.22187)
Orleans,Navarras Farm Market and Greenhouses,3272 Eagle Harbor Rd Albion,3272 Eagle Harbor Road,Albion,NY,14411,Amanda Mrzyuka,5855894674,http://navarrasfarmmarketandgreenhouses.net,"Mon-Sat 9am-6pm, Sun 9am-5pm",Year-Round,YR,Y,N,N,Y,43.18941,-78.25422,POINT (-78.25422 43.18941)
Orleans,Panek's Farm Stand,13420 W County House Rd Albion,13420 W County House Rd.,Albion,NY,14411,Kerry Panek,5855896155,http://www.panekspickinpatch.com,"Mon-Sat 9am-5pm, Sun 10am-5pm",June 10-October 30,M,Y,N,N,Y,43.21866,-78.2551,POINT (-78.2551 43.21866)
Orleans,Roberts Farm Market,11170 Maple Ridge Rd Medina,11170 Maple Ridge Rd.,Medina,NY,14103,Margaret Roberts,5857984247,http://www.robertsfarmmarket.com,"Winter Hrs Tue-Sat 9a-5p, Dec-April",Year-round,YR,N,N,N,Y,43.20679,-78.40098,POINT (-78.40098 43.20679)
Oswego,Fulton Farmers' Market,"Canalview Mall Parking Lot , Off Route 41 Fulton",Canalview Mall,Fulton,NY,13069,Taylor Davis,3153437681,http://www.oswegofultonchamber.com,Sat 8am-12pm,June 8-October 12,M,Y,Y,N,Y,43.3111,-76.40499,POINT (-76.40499 43.3111)
Oswego,Godfrey's Last Stand Farm Stand,1232 State Route 264 Phoenix,1232 State Route 264,Phoenix,NY,13135,Roberta and Josephine Godfrey,3155937291,,Daily 10am-4pm,May 10-December 20,P/M/X,Y,Y,N,Y,43.31155,-76.29001,POINT (-76.29001 43.31155)
Oswego,Guppy's Berry Farm Farm Stand,512 County Route 26 West Monroe,512 County Route 26,West Monroe,NY,13617,Elaine Guppy,3156257920,http://www.guppysberryfarmllc.com,Tue-Sun 9am-4pm,July 23-October 1,M,Y,N,N,Y,43.35052,-76.03094,POINT (-76.03094 43.35052)
Oswego,Oswego Farmers' Market,West 1st btwn Bridge & W Oneida St,West Bridge St and West 1st St,Oswego,NY,13126,Taylor Davis,3153437681,http://www.oswegofultonchamber.com,Thu 4pm-8pm,June 13-October 10,M,Y,Y,N,Y,43.45656,-76.51127,POINT (-76.51127 43.45656)
Oswego,Pulaski Farmers' Market,"South Park, 3 Bridge St.",3 Bridge St.,Pulaski,NY,13142,Jessie Kling,3155295705,http://www.pulaskifarmersmarket.com,Fri 4pm-8pm,June 7-September 27,M,Y,N,N,Y,43.56621,-76.12843,POINT (-76.12843 43.56621)
Otsego,Clapper's Maple Ridge Ranch Farm Stand,184 Lower Reservoir Rd Oneonta,184 Lower Reservoir Road,Oneonta,NY,13820,Dana Clapper,6073433527,,"Mon-Fri 3pm-6pm, Sat-Sun 10am-6pm",June 1-October 27,M,Y,N,N,Y,42.48399,-75.04198,POINT (-75.04198 42.48399)
Otsego,Cooperstown Saturday Farmers' Market,101 Main St. in Pioneer Alley near Keybank,101 Main St,Cooperstown,NY,13326,Alex Webster,6075476195,http://www.cooperstownfarmersmarket.org,Sat 9am-2pm,Year-round,YR,Y,Y,N,Y,42.70001,-74.92526,POINT (-74.92526 42.70001)
Otsego,Cooperstown Tuesday Farmers' Market,101 Main Street in Pioneer Alley near Keybank,101 Main Street,Cooperstown,NY,13326,Alex Webster,6075476195,http://www.cooperstownfarmersmarket.org,Tue 12pm-4pm,July 2-September 24,M,Y,Y,N,Y,42.70063,-74.92524,POINT (-74.92524 42.70063)
Otsego,Morris Farmers' Market,"Guy Rathbon Park 117 Main St., behind Firehouse",Main St and Church St,Morris,NY,13808,Kristina Shields,6072635203,,Thu 2:30pm-5:30pm,May 23-October 31,P/M,Y,N,N,Y,42.54813,-75.24686,POINT (-75.24686 42.54813)
Otsego,Oneonta Farmers' Market,Dietz Street,Dietz Street,Oneonta,NY,13820,Meg Kennedy,6074342407,http://www.oneontafarmersmarket.org,Sat 9am-12pm,Year-round,YR,Y,N,N,Y,42.45644,-75.06295,POINT (-75.06295 42.45644)
Otsego,Richfield Springs Area Sat Farmers' Market,"Spring Park Main St. (Rt. 20), across from Post Office",Main St and Church St,Richfield Springs,NY,13439,Holly Pullis,3157505847,,Sat 9am-1pm,June 15-October 26,M,Y,N,N,Y,42.85359,-74.98476,POINT (-74.98476 42.85359)
Queens,Corona Greenmarket,Roosevelt Ave and 103rd St,103-28 Roosevelt Ave,Corona,NY,11368,Iliana Garcia,2127887900,http://www.grownyc.org/greenmarket,Fri 8am-3pm,June 14-November 22,M,Y,Y,N,Y,40.74994,-73.86221,POINT (-73.86221 40.74994)
Queens,Cunningham Park Farmers' Market,"19600 Union Tpke, Fresh Meadows, NE corner parking lot near 196th Pl",19600 Union Turnpike,Queens,NY,11366,Dacotah Rousseau,9149234837,http://www.downtoearthmarkets.com,Sun 9am-2pm,April 21-December 22,P/M/X,Y,Y,N,Y,40.73087,-73.77457,POINT (-73.77457 40.73087)
Queens,Elmhurst Hospital Greenmarket,41st Ave btwn 80th & 81st St,79-11 41st Avenue,Elmhurst,NY,11373,Iliana Garcia,2127887900,http://www.grownyc.org,Tue 8am-3pm,June 11-November 26,M,Y,Y,N,Y,40.74584,-73.88622,POINT (-73.88622 40.74584)
Queens,Flushing Greenmarket,Sanford Ave & Union St (Bowne Park),42-45 Kissena Boulevard,Flushing,NY,11355,Iliana Garcia,2127887900,https://www.grownyc.org/farmstands,Wed 8am-3pm,July 3-November 27,M,Y,Y,N,Y,40.75663,-73.82554,POINT (-73.82554 40.75663)
